# 
# Header Description:
# 
# Version: v2.0.0.1 Platform: 8.1.0 Manufacturer: Google Model: Pixel 2
# 
# Raw,ElapsedRealtimeMillis,TimeNanos,LeapSecond,TimeUncertaintyNanos,FullBiasNanos,BiasNanos,BiasUncertaintyNanos,DriftNanosPerSecond,DriftUncertaintyNanosPerSecond,HardwareClockDiscontinuityCount,Svid,TimeOffsetNanos,State,ReceivedSvTimeNanos,ReceivedSvTimeUncertaintyNanos,Cn0DbHz,PseudorangeRateMetersPerSecond,PseudorangeRateUncertaintyMetersPerSecond,AccumulatedDeltaRangeState,AccumulatedDeltaRangeMeters,AccumulatedDeltaRangeUncertaintyMeters,CarrierFrequencyHz,CarrierCycles,CarrierPhase,CarrierPhaseUncertainty,MultipathIndicator,SnrInDb,ConstellationType,AgcDb,CarrierFrequencyHz
# 
# Fix,Provider,Latitude,Longitude,Altitude,Speed,Accuracy,Bearing,Orientation,(UTC)TimeInMs
# 
# Nav,Svid,Type,Status,MessageId,Sub-messageId,Data(Bytes)
# 
Fix,gps,48.386700,15.582188,257.245300,0.000000,7.504000,0.000000,28.883667,1524811779000
Fix,gps,48.386702,15.582189,257.399109,0.000000,6.432000,0.000000,14.596954,1524811780000
Fix,gps,48.386702,15.582187,257.505981,0.000000,5.360000,0.000000,20.594879,1524811781000
Fix,gps,48.386701,15.582186,257.304321,0.000000,5.360000,0.000000,12.975800,1524811782000
Fix,gps,48.386702,15.582186,257.338074,0.000000,4.288000,0.000000,15.836243,1524811783000
Fix,gps,48.386702,15.582186,257.478027,0.000000,4.288000,0.000000,13.652283,1524811784000
Fix,gps,48.386702,15.582186,257.583618,0.000000,3.216000,0.000000,13.795654,1524811785000
Fix,gps,48.386702,15.582186,257.569458,0.000000,3.216000,0.000000,16.472321,1524811786000
Fix,gps,48.386702,15.582186,257.553589,0.000000,3.216000,0.000000,15.057678,1524811787000
Fix,gps,48.386702,15.582186,257.502625,0.000000,3.216000,0.000000,20.350220,1524811788000
Fix,gps,48.386702,15.582186,257.508423,0.000000,3.216000,0.000000,38.703033,1524811789000
Fix,gps,48.386739,15.582164,258.232422,2.300000,3.216000,337.500000,345.262299,1524811790000
Fix,gps,48.386798,15.582146,260.239807,3.390000,3.216000,341.100006,327.976685,1524811791000
Fix,gps,48.386835,15.582144,258.641418,4.060000,3.216000,348.899994,328.762115,1524811792000
Fix,gps,48.386872,15.582137,258.477844,5.130000,3.216000,356.399994,359.480377,1524811793000
Fix,gps,48.386937,15.582129,261.451050,6.270000,4.288000,358.000000,11.482391,1524811794000
Fix,gps,48.386996,15.582098,258.807983,7.770000,4.288000,352.200012,6.995087,1524811795000
Fix,gps,48.387075,15.582069,256.962280,8.670000,4.288000,351.399994,15.994324,1524811796000
Fix,gps,48.387153,15.582062,255.425720,9.210000,5.360000,351.500000,3.049774,1524811797000
Fix,gps,48.387256,15.582043,255.368652,10.670000,5.360000,351.299988,4.234650,1524811798000
Fix,gps,48.387317,15.582017,251.481934,10.570000,6.432000,351.600006,3.740479,1524811799000
Fix,gps,48.387402,15.581981,250.701660,11.740000,5.360000,351.299988,15.152771,1524811800000
Fix,gps,48.387511,15.581960,250.544556,12.270000,6.432000,351.299988,9.314850,1524811801000
Fix,gps,48.387610,15.581931,248.805481,12.370000,6.432000,351.399994,344.631531,1524811802000
Fix,gps,48.387723,15.581916,248.048523,12.490000,6.432000,351.700012,7.671112,1524811803000
Fix,gps,48.387840,15.581883,249.199036,12.630000,6.432000,352.100006,3.327606,1524811804000
Fix,gps,48.387955,15.581866,248.460693,12.710000,6.432000,352.799988,15.955383,1524811805000
Fix,gps,48.388072,15.581826,245.801147,12.670000,5.360000,352.600006,9.143951,1524811806000
Fix,gps,48.388191,15.581805,246.425171,12.710000,5.360000,351.500000,28.112488,1524811807000
Fix,gps,48.388294,15.581788,245.594360,12.800000,5.360000,350.700012,14.935516,1524811808000
Fix,gps,48.388408,15.581755,246.195679,12.740000,4.288000,348.500000,24.058990,1524811809000
Fix,gps,48.388522,15.581721,246.738586,12.760000,4.288000,347.899994,12.348206,1524811810000
Fix,gps,48.388633,15.581692,246.742676,12.600000,4.288000,347.899994,5.089355,1524811811000
Fix,gps,48.388733,15.581657,246.036865,12.610000,5.360000,348.600006,12.469849,1524811812000
Fix,gps,48.388864,15.581633,247.015564,12.510000,4.288000,349.100006,5.980865,1524811813000
Fix,gps,48.388996,15.581611,246.225464,12.640000,5.360000,349.200012,7.659058,1524811814000
Fix,gps,48.389100,15.581581,246.084045,12.590000,5.360000,349.399994,12.409607,1524811815000
Fix,gps,48.389235,15.581561,247.076172,12.520000,5.360000,349.799988,359.200195,1524811816000
Fix,gps,48.389350,15.581536,246.905884,12.620000,5.360000,349.100006,10.294250,1524811817000
Fix,gps,48.389460,15.581503,246.604553,12.530000,5.360000,349.700012,357.349304,1524811818000
Fix,gps,48.389572,15.581478,247.963745,12.490000,5.360000,349.500000,8.574310,1524811819000
Fix,gps,48.389686,15.581443,246.127319,12.480000,4.288000,350.299988,354.738281,1524811820000
Fix,gps,48.389801,15.581413,243.953735,12.430000,4.288000,352.100006,357.425873,1524811821000
Fix,gps,48.389916,15.581388,244.826416,12.630000,4.288000,352.100006,16.643585,1524811822000
Fix,gps,48.390034,15.581370,243.330383,12.690000,4.288000,351.100006,20.944275,1524811823000
Fix,gps,48.390138,15.581320,241.558899,12.700000,4.288000,350.200012,13.759430,1524811824000
Fix,gps,48.390246,15.581291,240.763123,12.740000,4.288000,349.799988,11.830048,1524811825000
Fix,gps,48.390351,15.581262,240.975525,12.750000,4.288000,349.100006,1.406616,1524811826000
Fix,gps,48.390468,15.581230,241.508667,12.630000,4.288000,349.100006,15.081879,1524811827000
Fix,gps,48.390581,15.581194,242.168274,12.750000,4.288000,348.500000,15.249023,1524811828000
Fix,gps,48.390682,15.581159,241.831665,12.570000,5.360000,348.000000,5.533875,1524811829000
Fix,gps,48.390795,15.581124,241.469177,12.530000,4.288000,349.200012,18.777161,1524811830000
Fix,gps,48.390900,15.581096,241.857300,12.370000,5.360000,350.100006,6.427460,1524811831000
Fix,gps,48.391012,15.581066,242.721497,12.310000,5.360000,349.000000,6.205811,1524811832000
Fix,gps,48.391116,15.581039,243.560852,11.990000,5.360000,348.700012,9.929321,1524811833000
Fix,gps,48.391227,15.580998,244.337341,11.960000,5.360000,348.100006,348.807617,1524811834000
Fix,gps,48.391336,15.580971,245.007385,11.620000,5.360000,348.799988,6.944611,1524811835000
Fix,gps,48.391440,15.580951,245.375793,11.460000,6.432000,349.799988,5.653107,1524811836000
Fix,gps,48.391528,15.580924,246.110535,11.070000,6.432000,350.299988,350.495819,1524811837000
Fix,gps,48.391628,15.580908,245.905823,10.670000,5.360000,351.700012,9.842773,1524811838000
Fix,gps,48.391716,15.580868,246.712036,10.110000,5.360000,352.200012,11.341736,1524811839000
Fix,gps,48.391799,15.580855,247.760864,9.530000,5.360000,353.299988,8.874084,1524811840000
Fix,gps,48.391872,15.580847,247.178772,7.830000,5.360000,355.500000,11.497803,1524811841000
Fix,gps,48.391915,15.580838,244.088013,5.370000,5.360000,357.399994,13.904358,1524811842000
Fix,gps,48.391956,15.580833,245.440918,3.850000,5.360000,5.100000,2.135376,1524811843000
Fix,gps,48.391976,15.580834,243.063538,3.110000,5.360000,8.000000,14.600006,1524811844000
Fix,gps,48.391990,15.580840,242.896912,1.230000,5.360000,8.000000,23.187805,1524811845000
Fix,gps,48.392006,15.580855,243.598206,1.500000,5.360000,29.700001,347.643097,1524811846000
Fix,gps,48.392016,15.580863,243.604553,2.650000,5.360000,29.900000,324.996063,1524811847000
Fix,gps,48.392044,15.580893,244.044556,3.610000,5.360000,41.900002,14.682404,1524811848000
Fix,gps,48.392062,15.580929,244.007813,4.340000,5.360000,41.000000,66.919556,1524811849000
Fix,gps,48.392104,15.580957,244.705811,4.500000,5.360000,25.500000,87.853088,1524811850000
Fix,gps,48.392150,15.580949,245.271057,4.700000,5.360000,349.100006,75.503906,1524811851000
Fix,gps,48.392180,15.580930,244.987183,3.680000,5.360000,335.100006,59.392883,1524811852000
Fix,gps,48.392195,15.580861,244.121582,5.460000,5.360000,287.000000,299.532196,1524811853000
Fix,gps,48.392210,15.580795,243.645325,5.670000,5.360000,287.399994,318.828888,1524811854000
Fix,gps,48.392231,15.580706,244.106323,6.370000,6.432000,290.200012,349.335663,1524811855000
Fix,gps,48.392272,15.580616,244.774048,7.400000,6.432000,300.000000,353.851624,1524811856000
Fix,gps,48.392307,15.580514,245.121033,7.920000,6.432000,299.700012,329.112885,1524811857000
Fix,gps,48.392345,15.580420,244.642761,8.540000,6.432000,300.299988,335.019440,1524811858000
Fix,gps,48.392392,15.580322,244.951355,8.970000,6.432000,301.299988,331.284241,1524811859000
Fix,gps,48.392434,15.580221,244.785828,9.170000,6.432000,301.299988,325.899628,1524811860000
Fix,gps,48.392460,15.580114,244.883911,9.390000,6.432000,301.899994,334.030670,1524811861000
Fix,gps,48.392497,15.580005,244.502075,9.420000,6.432000,302.200012,356.722412,1524811862000
Fix,gps,48.392535,15.579900,244.335815,9.110000,6.432000,302.100006,337.497375,1524811863000
Fix,gps,48.392591,15.579806,245.396973,8.770000,6.432000,304.700012,328.809753,1524811864000
Fix,gps,48.392640,15.579716,246.453857,8.240000,6.432000,306.899994,337.404144,1524811865000
Fix,gps,48.392684,15.579633,247.263794,7.830000,6.432000,310.500000,343.111816,1524811866000
Fix,gps,48.392726,15.579557,247.475830,6.980000,6.432000,311.700012,343.911804,1524811867000
Fix,gps,48.392765,15.579495,247.146606,6.360000,6.432000,312.200012,301.802979,1524811868000
Fix,gps,48.392801,15.579444,247.211426,5.640000,6.432000,320.700012,292.912048,1524811869000
Fix,gps,48.392873,15.579432,248.650513,5.360000,5.360000,353.100006,312.574524,1524811870000
Fix,gps,48.392936,15.579439,249.810303,5.370000,5.360000,4.000000,11.799591,1524811871000
Fix,gps,48.393015,15.579457,251.073669,5.360000,5.360000,4.500000,9.302094,1524811872000
Fix,gps,48.393060,15.579467,250.311707,5.240000,5.360000,5.600000,353.394348,1524811873000
Fix,gps,48.393110,15.579506,248.511841,4.570000,5.360000,22.500000,20.054871,1524811874000
Fix,gps,48.393134,15.579535,250.789001,2.630000,5.360000,52.700001,21.669250,1524811875000
Fix,gps,48.393144,15.579542,251.441162,2.190000,5.360000,53.099998,38.185944,1524811876000
Fix,gps,48.393155,15.579566,250.443970,2.320000,6.432000,60.500000,25.426697,1524811877000
Fix,gps,48.393171,15.579592,249.187744,2.860000,5.360000,59.000000,2.520996,1524811878000
Fix,gps,48.393190,15.579632,249.578064,3.300000,6.432000,62.400002,22.211792,1524811879000
Fix,gps,48.393196,15.579679,249.463745,3.620000,7.504000,68.300003,23.735138,1524811880000
Fix,gps,48.393178,15.579792,249.380310,6.160000,6.432000,87.400002,39.551819,1524811881000
Fix,gps,48.393176,15.579887,249.851685,6.630000,6.432000,87.099998,45.347504,1524811882000
Fix,gps,48.393177,15.579986,249.472839,7.310000,6.432000,90.099998,60.602692,1524811883000
Fix,gps,48.393178,15.580067,251.104004,7.230000,6.432000,90.500000,55.074615,1524811884000
Fix,gps,48.393179,15.580178,252.305542,7.710000,6.432000,89.800003,62.261932,1524811885000
Fix,gps,48.393174,15.580299,252.311340,8.020000,6.432000,88.300003,56.904602,1524811886000
Fix,gps,48.393178,15.580401,252.797974,8.130000,5.360000,89.400002,57.664520,1524811887000
Fix,gps,48.393169,15.580510,253.922913,7.880000,6.432000,91.800003,59.466614,1524811888000
Fix,gps,48.393158,15.580611,254.727783,7.380000,6.432000,98.699997,57.058105,1524811889000
Fix,gps,48.393146,15.580707,254.793213,7.460000,8.576000,99.800003,58.042450,1524811890000
Fix,gps,48.393142,15.580794,255.472534,7.230000,9.648001,100.099998,60.344513,1524811891000
Fix,gps,48.393133,15.580865,254.628052,5.960000,10.720000,103.300003,43.094696,1524811892000
Fix,gps,48.393152,15.580894,253.319580,3.660000,7.504000,94.300003,20.634552,1524811893000
Fix,gps,48.393108,15.580980,253.978394,3.040000,6.432000,101.199997,35.580109,1524811894000
Fix,gps,48.393123,15.580985,252.116333,2.510000,5.360000,111.300003,39.748627,1524811895000
Fix,gps,48.393084,15.580971,249.278687,3.860000,4.288000,170.800003,77.634735,1524811896000
Fix,gps,48.393032,15.580975,248.985718,4.890000,4.288000,182.399994,111.085358,1524811897000
Fix,gps,48.392973,15.580979,248.940613,5.860000,4.288000,179.399994,91.379883,1524811898000
Fix,gps,48.392909,15.580980,248.620728,6.580000,4.288000,181.199997,96.948364,1524811899000
Fix,gps,48.392846,15.580961,248.185242,6.960000,4.288000,180.699997,101.203766,1524811900000
Fix,gps,48.392775,15.580957,247.287048,7.540000,3.216000,179.500000,113.452393,1524811901000
Fix,gps,48.392708,15.580955,249.459717,7.170000,4.288000,180.899994,112.928162,1524811902000
Fix,gps,48.392629,15.580986,244.933838,6.950000,4.288000,176.899994,128.389648,1524811903000
Fix,gps,48.392572,15.580986,245.168640,6.390000,4.288000,166.600006,114.726624,1524811904000
Fix,gps,48.392516,15.581026,245.518494,5.840000,4.288000,163.000000,95.297943,1524811905000
Fix,gps,48.392461,15.581032,246.189392,5.700000,4.288000,179.300003,117.780823,1524811906000
Fix,gps,48.392420,15.581017,247.584778,5.050000,4.288000,195.699997,124.594269,1524811907000
Fix,gps,48.392383,15.580989,247.182800,4.650000,4.288000,198.600006,138.293549,1524811908000
Fix,gps,48.392345,15.580972,246.859680,4.370000,5.360000,197.600006,144.620636,1524811909000
Fix,gps,48.392313,15.580951,247.098267,3.730000,5.360000,196.899994,134.438171,1524811910000
Fix,gps,48.392290,15.580937,247.084595,2.540000,5.360000,197.300003,135.109497,1524811911000
Fix,gps,48.392276,15.580941,248.742065,1.850000,5.360000,193.899994,126.031342,1524811912000
Fix,gps,48.392265,15.580947,250.434326,2.050000,5.360000,196.199997,121.141296,1524811913000
Fix,gps,48.392249,15.580924,248.297485,2.930000,5.360000,227.399994,180.330917,1524811914000
Fix,gps,48.392235,15.580886,247.739380,3.560000,5.360000,246.699997,223.269897,1524811915000
Fix,gps,48.392232,15.580815,247.006714,4.210000,5.360000,272.000000,260.906097,1524811916000
Fix,gps,48.392244,15.580764,247.198364,5.010000,4.288000,296.500000,333.928589,1524811917000
Fix,gps,48.392265,15.580697,246.952759,5.790000,4.288000,298.500000,320.642914,1524811918000
Fix,gps,48.392300,15.580619,244.495605,6.740000,4.288000,298.899994,313.861298,1524811919000
Fix,gps,48.392337,15.580541,245.298340,7.400000,5.360000,299.899994,332.772858,1524811920000
Fix,gps,48.392357,15.580446,247.091309,7.790000,5.360000,300.500000,331.011536,1524811921000
Fix,gps,48.392394,15.580357,248.781311,8.180000,5.360000,300.200012,322.085754,1524811922000
Fix,gps,48.392436,15.580266,250.037842,8.310000,6.432000,301.200012,326.440704,1524811923000
Fix,gps,48.392466,15.580163,250.725220,8.180000,6.432000,300.700012,322.919556,1524811924000
Fix,gps,48.392477,15.580077,249.643677,8.020000,6.432000,300.600006,330.796326,1524811925000
Fix,gps,48.392526,15.580007,251.304504,7.930000,6.432000,302.399994,329.920502,1524811926000
Fix,gps,48.392561,15.579924,252.526306,7.820000,7.504000,302.299988,320.639038,1524811927000
Fix,gps,48.392606,15.579833,253.143127,7.870000,7.504000,304.299988,310.350311,1524811928000
Fix,gps,48.392651,15.579744,253.575195,7.690000,7.504000,303.600006,324.448944,1524811929000
Fix,gps,48.392693,15.579665,253.964844,7.400000,7.504000,309.600006,338.241089,1524811930000
Fix,gps,48.392737,15.579590,252.731689,7.080000,7.504000,310.700012,336.725708,1524811931000
Fix,gps,48.392777,15.579516,252.572021,6.960000,7.504000,310.100006,358.592926,1524811932000
Fix,gps,48.392810,15.579423,251.866272,6.920000,7.504000,301.399994,14.551361,1524811933000
Fix,gps,48.392844,15.579336,254.918091,6.920000,6.432000,293.299988,17.761810,1524811934000
Fix,gps,48.392860,15.579246,254.142639,7.130000,7.504000,284.500000,8.025360,1524811935000
Fix,gps,48.392880,15.579155,254.590210,7.170000,7.504000,281.700012,333.649719,1524811936000
Fix,gps,48.392869,15.579070,254.357300,6.420000,5.360000,263.700012,297.549164,1524811937000
Fix,gps,48.392852,15.578985,253.865234,6.090000,5.360000,263.600006,294.526123,1524811938000
Fix,gps,48.392853,15.578908,253.749634,5.170000,4.288000,267.899994,296.028809,1524811939000
Fix,gps,48.392857,15.578850,253.762268,4.130000,4.288000,274.200012,295.824890,1524811940000
Fix,gps,48.392861,15.578796,253.633301,3.460000,4.288000,277.000000,321.838806,1524811941000
Fix,gps,48.392870,15.578746,253.902588,3.390000,4.288000,282.500000,319.604248,1524811942000
Fix,gps,48.392858,15.578690,253.833923,3.890000,5.360000,276.000000,310.794098,1524811943000
Fix,gps,48.392861,15.578637,253.583862,3.890000,6.432000,276.000000,315.193359,1524811944000
Fix,gps,48.392951,15.578586,255.913086,5.980000,5.360000,313.500000,318.736267,1524811945000
Fix,gps,48.392994,15.578516,253.731384,7.060000,5.360000,320.200012,331.826172,1524811946000
Fix,gps,48.393049,15.578460,254.125122,7.260000,5.360000,322.100006,342.213013,1524811947000
Fix,gps,48.393136,15.578393,255.495300,7.880000,5.360000,324.899994,342.913574,1524811948000
Fix,gps,48.393190,15.578322,255.454346,8.020000,6.432000,324.100006,355.405640,1524811949000
Fix,gps,48.393265,15.578277,256.698669,8.080000,6.432000,327.399994,355.075470,1524811950000
Fix,gps,48.393326,15.578218,256.770508,8.080000,7.504000,327.399994,346.816132,1524811951000
Fix,gps,48.393367,15.578166,258.534546,7.270000,5.360000,331.500000,351.986420,1524811952000
Fix,gps,48.393425,15.578124,259.090698,7.400000,5.360000,333.600006,3.695068,1524811953000
Fix,gps,48.393494,15.578090,259.556030,7.760000,6.432000,333.100006,22.342255,1524811954000
Fix,gps,48.393554,15.578060,257.284180,7.240000,6.432000,335.600006,31.470673,1524811955000
Fix,gps,48.393613,15.578020,257.252197,7.230000,9.648001,335.600006,353.119354,1524811956000
Fix,gps,48.393697,15.577991,252.580261,5.940000,6.432000,336.600006,11.395020,1524811957000
Fix,gps,48.393740,15.577948,254.467834,5.570000,6.432000,334.799988,8.922241,1524811958000
Fix,gps,48.393780,15.577923,254.910156,4.940000,6.432000,334.500000,23.130493,1524811959000
Fix,gps,48.393818,15.577875,254.122437,5.580000,6.432000,326.000000,52.350067,1524811960000
Fix,gps,48.393841,15.577805,254.062256,5.860000,6.432000,314.399994,52.633484,1524811961000
Fix,gps,48.393866,15.577734,254.987244,6.220000,7.504000,305.000000,41.082001,1524811962000
Fix,gps,48.393870,15.577615,255.155029,7.640000,6.432000,285.500000,350.664581,1524811963000
Fix,gps,48.393852,15.577506,254.578186,8.100000,4.288000,266.299988,354.603729,1524811964000
Fix,gps,48.393840,15.577406,255.362122,8.500000,4.288000,264.200012,288.324402,1524811965000
Fix,gps,48.393828,15.577299,254.558105,8.940000,4.288000,258.500000,306.939697,1524811966000
Fix,gps,48.393794,15.577184,254.067749,8.810000,4.288000,255.399994,296.624908,1524811967000
Fix,gps,48.393771,15.577075,254.470337,8.440000,4.288000,252.600006,293.221130,1524811968000
Fix,gps,48.393754,15.576971,253.867859,7.920000,4.288000,253.000000,279.962341,1524811969000
Fix,gps,48.393720,15.576873,253.650757,6.950000,5.360000,252.000000,264.471436,1524811970000
Fix,gps,48.393713,15.576805,255.836548,5.020000,5.360000,254.199997,276.334442,1524811971000
Fix,gps,48.393717,15.576763,258.827393,3.200000,5.360000,253.600006,260.260864,1524811972000
Fix,gps,48.393709,15.576737,258.533691,1.850000,5.360000,252.699997,304.818634,1524811973000
Fix,gps,48.393702,15.576691,261.345764,1.940000,5.360000,253.100006,299.794250,1524811974000
Fix,gps,48.393690,15.576652,261.856384,2.490000,6.432000,252.899994,270.280334,1524811975000
Fix,gps,48.393691,15.576588,262.033569,3.600000,7.504000,266.399994,264.702332,1524811976000
Fix,gps,48.393707,15.576553,263.187378,3.710000,6.432000,292.000000,277.419983,1524811977000
Fix,gps,48.393705,15.576501,262.460083,3.810000,8.576000,292.399994,291.154999,1524811978000
Fix,gps,48.393794,15.576471,263.230408,6.450000,7.504000,342.899994,347.478119,1524811979000
Fix,gps,48.393889,15.576447,264.562195,8.490000,6.432000,351.399994,333.583191,1524811980000
Fix,gps,48.393989,15.576436,260.393188,9.770000,7.504000,355.399994,320.252472,1524811981000
Fix,gps,48.394088,15.576449,261.097961,11.050000,7.504000,3.600000,339.031372,1524811982000
Fix,gps,48.394174,15.576470,260.175659,11.280000,6.432000,7.800000,12.177856,1524811983000
Fix,gps,48.394298,15.576493,259.637573,11.740000,6.432000,8.500000,25.468414,1524811984000
Fix,gps,48.394418,15.576514,256.483032,11.590000,6.432000,6.900000,23.944214,1524811985000
Fix,gps,48.394518,15.576526,254.543152,11.690000,7.504000,7.600000,16.705658,1524811986000
Fix,gps,48.394620,15.576551,253.397278,11.490000,7.504000,7.400000,22.304443,1524811987000
Fix,gps,48.394750,15.576573,255.459961,12.300000,8.576000,7.500000,14.522278,1524811988000
Fix,gps,48.394824,15.576586,255.058350,10.860000,8.576000,6.100000,3.997223,1524811989000
Fix,gps,48.394917,15.576603,254.500854,10.560000,8.576000,3.900000,35.003845,1524811990000
Fix,gps,48.395004,15.576619,253.255188,9.090000,6.432000,359.899994,21.335693,1524811991000
Fix,gps,48.395082,15.576630,252.316589,8.520000,6.432000,358.399994,357.310303,1524811992000
Fix,gps,48.395153,15.576661,249.665527,6.630000,6.432000,1.700000,353.150757,1524811993000
Fix,gps,48.395210,15.576678,249.049377,6.120000,6.432000,4.700000,349.033691,1524811994000
Fix,gps,48.395259,15.576669,249.362366,6.980000,5.360000,1.200000,57.063477,1524811995000
Fix,gps,48.395336,15.576668,250.514526,8.000000,5.360000,357.200012,26.968597,1524811996000
Fix,gps,48.395432,15.576639,248.382263,9.190000,5.360000,351.500000,325.458160,1524811997000
Fix,gps,48.395514,15.576614,245.562744,10.510000,5.360000,350.200012,338.847198,1524811998000
Fix,gps,48.395615,15.576582,246.359619,11.880000,5.360000,349.700012,337.087952,1524811999000
Fix,gps,48.395726,15.576558,246.444702,12.400000,4.288000,349.399994,25.905457,1524812000000
Fix,gps,48.395822,15.576517,246.338745,13.080000,4.288000,346.399994,48.316071,1524812001000
Fix,gps,48.395938,15.576459,245.955811,14.110000,4.288000,342.299988,359.059448,1524812002000
Fix,gps,48.396077,15.576386,246.851135,14.910000,4.288000,338.399994,345.776642,1524812003000
Fix,gps,48.396212,15.576313,250.510498,14.660000,5.360000,335.899994,44.297150,1524812004000
Fix,gps,48.396326,15.576222,251.114868,14.610000,5.360000,334.000000,357.277435,1524812005000
Fix,gps,48.396452,15.576126,251.784485,15.180000,5.360000,332.500000,92.766113,1524812006000
Fix,gps,48.396581,15.576040,252.872253,15.630000,5.360000,334.600006,22.824707,1524812007000
Fix,gps,48.396712,15.575930,252.824219,16.469999,6.432000,331.700012,5.611572,1524812008000
Fix,gps,48.396845,15.575784,252.499390,17.290001,6.432000,329.700012,18.606171,1524812009000
Fix,gps,48.396985,15.575672,254.083557,16.780001,6.432000,331.700012,22.100677,1524812010000
Fix,gps,48.397116,15.575556,255.304077,17.040001,6.432000,329.799988,30.517151,1524812011000
Fix,gps,48.397243,15.575462,254.657776,16.580000,6.432000,331.799988,331.842102,1524812012000
Fix,gps,48.397379,15.575353,254.480225,16.950001,6.432000,333.200012,30.353241,1524812013000
Fix,gps,48.397507,15.575250,254.946167,16.250000,6.432000,334.600006,11.139130,1524812014000
Fix,gps,48.397648,15.575132,255.725708,16.650000,6.432000,332.399994,21.638641,1524812015000
Fix,gps,48.397797,15.575008,257.925049,17.010000,6.432000,335.200012,20.975403,1524812016000
Fix,gps,48.397932,15.574893,257.244934,16.389999,6.432000,331.899994,44.210388,1524812017000
Fix,gps,48.398057,15.574798,256.549194,16.139999,6.432000,332.399994,357.289795,1524812018000
Fix,gps,48.398189,15.574705,255.756714,16.549999,7.504000,332.600006,27.160400,1524812019000
Fix,gps,48.398307,15.574590,255.408203,16.309999,7.504000,330.700012,353.554840,1524812020000
Fix,gps,48.398438,15.574494,255.323425,16.070000,7.504000,329.700012,351.752380,1524812021000
Fix,gps,48.398529,15.574442,255.415649,15.030000,6.432000,331.299988,358.082092,1524812022000
Fix,gps,48.398652,15.574342,254.574158,15.260000,6.432000,329.299988,23.026855,1524812023000
Fix,gps,48.398770,15.574253,253.711670,14.720000,6.432000,332.000000,1.772858,1524812024000
Fix,gps,48.398881,15.574191,255.628845,13.320000,7.504000,335.700012,15.581940,1524812025000
Fix,gps,48.398996,15.574132,256.249268,13.250000,8.576000,335.799988,0.580536,1524812026000
Fix,gps,48.399104,15.574050,252.871460,13.310000,9.648001,330.500000,336.721100,1524812027000
Fix,gps,48.399172,15.573995,250.666809,13.290000,8.576000,335.600006,6.853027,1524812028000
Fix,gps,48.399287,15.573924,251.842407,12.890000,8.576000,332.000000,27.481995,1524812029000
Fix,gps,48.399389,15.573838,251.775391,12.890000,8.576000,333.299988,34.728546,1524812030000
Fix,gps,48.399487,15.573764,253.100281,11.310000,8.576000,332.299988,5.311249,1524812031000
Fix,gps,48.399562,15.573704,252.178223,10.310000,9.648001,331.700012,351.064789,1524812032000
Fix,gps,48.399634,15.573659,251.779907,9.140000,8.576000,335.200012,316.420868,1524812033000
Fix,gps,48.399689,15.573637,248.844727,8.070000,7.504000,354.500000,321.141998,1524812034000
Fix,gps,48.399742,15.573666,246.410278,8.070000,6.432000,19.200001,310.410095,1524812035000
Fix,gps,48.399807,15.573740,246.818054,8.910000,5.360000,40.799999,348.075775,1524812036000
Fix,gps,48.399860,15.573842,247.987366,9.700000,5.360000,57.099998,348.580811,1524812037000
Fix,gps,48.399898,15.573968,247.994690,10.050000,5.360000,60.700001,350.540985,1524812038000
Fix,gps,48.399933,15.574092,248.063782,9.550000,6.432000,67.599998,0.371582,1524812039000
Fix,gps,48.399923,15.574252,248.508911,10.260000,6.432000,88.099998,42.993713,1524812040000
Fix,gps,48.399902,15.574417,246.794556,11.090000,6.432000,92.599998,68.894714,1524812041000
Fix,gps,48.399915,15.574562,245.674683,11.480000,5.360000,92.599998,53.101501,1524812042000
Fix,gps,48.399905,15.574708,244.286255,11.660000,5.360000,92.000000,57.221588,1524812043000
Fix,gps,48.399895,15.574868,244.401123,11.390000,6.432000,90.300003,73.450073,1524812044000
Fix,gps,48.399897,15.575020,244.669739,11.260000,6.432000,88.400002,47.880798,1524812045000
Fix,gps,48.399911,15.575165,243.537964,11.100000,6.432000,86.699997,20.416992,1524812046000
Fix,gps,48.399906,15.575333,241.630920,11.220000,6.432000,85.000000,49.689453,1524812047000
Fix,gps,48.399930,15.575477,239.656311,11.220000,6.432000,82.900002,31.548248,1524812048000
Fix,gps,48.399941,15.575630,239.324280,11.340000,6.432000,81.699997,55.321991,1524812049000
Fix,gps,48.399964,15.575788,238.896973,11.430000,6.432000,81.500000,41.270508,1524812050000
Fix,gps,48.399983,15.575939,238.988464,11.460000,6.432000,80.900002,82.458252,1524812051000
Fix,gps,48.400005,15.576086,238.675293,11.520000,7.504000,79.300003,59.999725,1524812052000
Fix,gps,48.400016,15.576246,238.531372,11.670000,8.576000,79.500000,64.017242,1524812053000
Fix,gps,48.400029,15.576416,238.865540,11.800000,9.648001,79.199997,58.026581,1524812054000
Fix,gps,48.400060,15.576563,239.352661,11.640000,9.648001,77.099998,51.041870,1524812055000
Fix,gps,48.400091,15.576711,239.676941,11.290000,7.504000,73.300003,28.055634,1524812056000
Fix,gps,48.400122,15.576847,240.496948,11.280000,7.504000,72.699997,49.048676,1524812057000
Fix,gps,48.400157,15.576991,240.152283,11.150000,7.504000,71.699997,59.906494,1524812058000
Fix,gps,48.400173,15.577145,241.203613,11.070000,8.576000,72.500000,41.275177,1524812059000
Fix,gps,48.400205,15.577286,240.815735,10.850000,8.576000,71.599998,52.543793,1524812060000
Fix,gps,48.400245,15.577403,240.584900,10.110000,7.504000,70.199997,47.276855,1524812061000
Fix,gps,48.400276,15.577532,240.511841,10.110000,9.648001,70.199997,61.317047,1524812062000
Fix,gps,48.400316,15.577639,239.797913,9.660000,9.648001,69.699997,69.672272,1524812063000
Fix,gps,48.400344,15.577758,240.036438,9.610000,9.648001,69.800003,52.423615,1524812064000
Fix,gps,48.400383,15.577862,239.919800,9.240000,9.648001,69.400002,51.680786,1524812065000
Fix,gps,48.400429,15.577953,239.724243,8.750000,9.648001,68.500000,59.235687,1524812066000
Fix,gps,48.400461,15.578047,240.328552,8.200000,8.576000,69.500000,46.636017,1524812067000
Fix,gps,48.400470,15.578157,241.245667,7.740000,8.576000,71.800003,62.213837,1524812068000
Fix,gps,48.400496,15.578243,241.663452,7.170000,8.576000,70.500000,44.716919,1524812069000
Fix,gps,48.400527,15.578308,241.232239,6.440000,6.432000,72.500000,65.689117,1524812070000
Fix,gps,48.400526,15.578396,240.956177,5.780000,6.432000,76.400002,59.487457,1524812071000
Fix,gps,48.400531,15.578446,241.074280,4.360000,6.432000,75.400002,73.701050,1524812072000
Fix,gps,48.400538,15.578484,241.102478,3.290000,5.360000,81.099998,73.337799,1524812073000
Fix,gps,48.400530,15.578519,240.979858,2.210000,5.360000,91.199997,34.202789,1524812074000
Fix,gps,48.400538,15.578526,240.737671,1.350000,4.288000,94.500000,51.795898,1524812075000
Fix,gps,48.400550,15.578557,239.531067,2.200000,5.360000,74.500000,149.550018,1524812076000
Fix,gps,48.400535,15.578631,239.589722,4.070000,5.360000,82.599998,278.915710,1524812077000
Fix,gps,48.400549,15.578698,239.054443,4.720000,4.288000,74.400002,69.759216,1524812078000
Fix,gps,48.400550,15.578807,240.642334,6.280000,5.360000,73.599998,29.243469,1524812079000
Fix,gps,48.400585,15.578916,241.486328,7.360000,6.432000,69.300003,18.586212,1524812080000
Fix,gps,48.400636,15.579017,243.766113,8.070000,5.360000,73.400002,26.967529,1524812081000
Fix,gps,48.400666,15.579113,242.903076,8.520000,6.432000,70.300003,30.186859,1524812082000
Fix,gps,48.400676,15.579259,244.725586,9.340000,6.432000,70.099998,21.154083,1524812083000
Fix,gps,48.400688,15.579409,246.367493,10.300000,6.432000,71.099998,27.364624,1524812084000
Fix,gps,48.400729,15.579521,246.507507,10.510000,6.432000,68.900002,26.037689,1524812085000
Fix,gps,48.400764,15.579655,246.395569,10.680000,6.432000,69.500000,13.224884,1524812086000
Fix,gps,48.400768,15.579826,247.318359,10.810000,6.432000,70.099998,28.143616,1524812087000
Fix,gps,48.400767,15.580007,249.532959,11.020000,6.432000,70.800003,42.464722,1524812088000
Fix,gps,48.400824,15.580128,250.663940,11.030000,6.432000,68.199997,32.049286,1524812089000
Fix,gps,48.400876,15.580259,249.433472,11.000000,7.504000,66.400002,24.366028,1524812090000
Fix,gps,48.400913,15.580405,248.599609,10.970000,6.432000,66.000000,30.608887,1524812091000
Fix,gps,48.400958,15.580530,246.795349,11.000000,5.360000,65.400002,28.015625,1524812092000
Fix,gps,48.400996,15.580667,246.683838,10.940000,5.360000,65.000000,31.699341,1524812093000
Fix,gps,48.401042,15.580796,247.808472,10.820000,5.360000,63.900002,33.244537,1524812094000
Fix,gps,48.401092,15.580919,247.427124,10.290000,6.432000,62.299999,16.275482,1524812095000
Fix,gps,48.401133,15.581037,246.998230,9.640000,6.432000,61.599998,30.387787,1524812096000
Fix,gps,48.401184,15.581130,248.398315,8.860000,5.360000,59.700001,24.860443,1524812097000
Fix,gps,48.401240,15.581202,247.735962,8.060000,10.720000,58.599998,31.808533,1524812098000
Fix,gps,48.401277,15.581286,247.399170,7.650000,10.720000,58.700001,31.395416,1524812099000
Fix,gps,48.401313,15.581376,245.683350,7.420000,10.720000,59.400002,31.692780,1524812100000
Fix,gps,48.401352,15.581469,245.294312,7.380000,10.720000,58.900002,39.144043,1524812101000
Fix,gps,48.401387,15.581537,246.052429,6.330000,10.720000,58.500000,39.577179,1524812102000
Fix,gps,48.401425,15.581587,247.688904,5.490000,11.792000,57.700001,40.544952,1524812103000
Fix,gps,48.401429,15.581652,249.031799,4.050000,11.792000,64.300003,54.909119,1524812104000
Fix,gps,48.401407,15.581734,247.826172,3.310000,11.792000,74.000000,40.685913,1524812105000
Fix,gps,48.401438,15.581744,247.955627,2.180000,11.792000,70.900002,38.783447,1524812106000
Fix,gps,48.401453,15.581753,248.073486,2.110000,11.792000,56.900002,33.923645,1524812107000
Fix,gps,48.401454,15.581791,247.567627,3.060000,11.792000,65.199997,43.234192,1524812108000
Fix,gps,48.401470,15.581825,247.340393,3.720000,10.720000,57.900002,28.434723,1524812109000
Fix,gps,48.401496,15.581874,246.100586,4.150000,10.720000,59.200001,33.969421,1524812110000
Fix,gps,48.401531,15.581903,244.374023,4.200000,10.720000,62.000000,70.592499,1524812111000
Fix,gps,48.401547,15.581948,245.125671,3.550000,10.720000,34.900002,77.302551,1524812112000
Fix,gps,48.401580,15.581965,246.149963,2.930000,5.360000,25.500000,38.532135,1524812113000
Fix,gps,48.401608,15.581966,247.147278,3.010000,5.360000,344.700012,36.226471,1524812114000
Fix,gps,48.401639,15.581948,246.226318,3.140000,4.288000,343.000000,331.116241,1524812115000
Fix,gps,48.401670,15.581928,246.711792,3.390000,4.288000,339.799988,287.078491,1524812116000
Fix,gps,48.401702,15.581906,246.472351,3.600000,4.288000,337.000000,355.489044,1524812117000
Fix,gps,48.401736,15.581879,245.658875,3.890000,4.288000,335.700012,328.409302,1524812118000
Fix,gps,48.401770,15.581852,245.591919,4.040000,4.288000,337.500000,340.202332,1524812119000
Fix,gps,48.401805,15.581828,245.046875,4.070000,4.288000,338.399994,58.032166,1524812120000
Fix,gps,48.401845,15.581800,245.219849,4.360000,4.288000,340.500000,323.260437,1524812121000
Fix,gps,48.401886,15.581774,245.718506,4.220000,4.288000,338.500000,352.073883,1524812122000
Fix,gps,48.401924,15.581750,245.356323,4.050000,5.360000,340.799988,8.830414,1524812123000
Fix,gps,48.401960,15.581730,246.112549,3.610000,5.360000,339.600006,22.179871,1524812124000
Fix,gps,48.401990,15.581709,247.322388,3.110000,5.360000,326.100006,57.045044,1524812125000
Fix,gps,48.402013,15.581680,249.085144,2.850000,5.360000,323.299988,1.129944,1524812126000
Fix,gps,48.402027,15.581636,249.454956,3.320000,5.360000,300.799988,342.327209,1524812127000
Fix,gps,48.402033,15.581580,248.453918,3.900000,7.504000,281.899994,357.255066,1524812128000
Fix,gps,48.402029,15.581518,250.703430,3.720000,8.576000,271.399994,268.228638,1524812129000
Fix,gps,48.402019,15.581463,250.825439,3.370000,9.648001,264.200012,179.114502,1524812130000
Fix,gps,48.402004,15.581424,252.629028,1.900000,9.648001,254.399994,148.024811,1524812131000
Fix,gps,48.401985,15.581400,252.319214,2.070000,8.576000,236.300003,120.951691,1524812132000
Fix,gps,48.401949,15.581390,253.043579,3.640000,8.576000,195.000000,114.618195,1524812133000
Fix,gps,48.401902,15.581399,252.768921,4.210000,7.504000,170.899994,108.662628,1524812134000
Fix,gps,48.401849,15.581431,255.257935,4.860000,7.504000,151.500000,86.765930,1524812135000
Fix,gps,48.401736,15.581547,253.908936,5.070000,7.504000,152.300003,62.793365,1524812136000
Fix,gps,48.401687,15.581590,255.525024,5.100000,6.432000,155.199997,114.367157,1524812137000
Fix,gps,48.401637,15.581627,254.419678,4.910000,6.432000,155.600006,95.503113,1524812138000
Fix,gps,48.401597,15.581659,255.552307,4.280000,6.432000,155.600006,79.586395,1524812139000
Fix,gps,48.401566,15.581677,257.247437,3.770000,6.432000,159.000000,72.927673,1524812140000
Fix,gps,48.401533,15.581696,256.088379,3.470000,6.432000,157.300003,99.494659,1524812141000
Fix,gps,48.401503,15.581706,254.279175,2.790000,6.432000,164.500000,120.571869,1524812142000
Fix,gps,48.401472,15.581712,255.540527,1.570000,6.432000,164.699997,78.084351,1524812143000
Fix,gps,48.401470,15.581713,253.098633,1.870000,6.432000,181.199997,81.789032,1524812144000
Fix,gps,48.401459,15.581710,252.105713,2.210000,6.432000,199.199997,76.712341,1524812145000
Fix,gps,48.401433,15.581688,250.009583,2.720000,6.432000,211.699997,143.566589,1524812146000
Fix,gps,48.401407,15.581648,250.533752,4.230000,6.432000,223.000000,190.293701,1524812147000
Fix,gps,48.401382,15.581603,250.311646,4.460000,7.504000,227.100006,262.357544,1524812148000
Fix,gps,48.401361,15.581520,250.112305,5.700000,6.432000,237.399994,237.515961,1524812149000
Fix,gps,48.401330,15.581453,248.909668,5.820000,7.504000,236.500000,221.705353,1524812150000
Fix,gps,48.401333,15.581374,248.402832,5.640000,9.648001,244.600006,236.110733,1524812151000
Fix,gps,48.401306,15.581354,249.150513,4.690000,11.792000,232.500000,247.153351,1524812152000
Fix,gps,48.401260,15.581317,249.782227,5.230000,11.792000,226.500000,239.787933,1524812153000
Fix,gps,48.401237,15.581252,249.093323,5.250000,12.864000,231.600006,261.748840,1524812154000
Fix,gps,48.401204,15.581198,248.018127,5.320000,15.008000,230.300003,254.888916,1524812155000
Fix,gps,48.401223,15.581086,248.580200,5.420000,17.152000,244.600006,247.969955,1524812156000
Fix,gps,48.401203,15.581024,248.763428,5.220000,16.080000,244.699997,240.084061,1524812157000
Fix,gps,48.401198,15.580933,248.552002,5.320000,15.008000,247.199997,241.814362,1524812158000
Fix,gps,48.401185,15.580865,248.406677,5.170000,15.008000,245.600006,253.271500,1524812159000
Fix,gps,48.401180,15.580780,247.759766,4.930000,15.008000,245.899994,238.985001,1524812160000
Fix,gps,48.401149,15.580733,248.153809,4.540000,11.792000,243.899994,226.841248,1524812161000
Fix,gps,48.401132,15.580671,248.740906,4.590000,7.504000,247.600006,272.351013,1524812162000
Fix,gps,48.401120,15.580650,250.979370,3.990000,5.360000,274.799988,253.551483,1524812163000
Fix,gps,48.401125,15.580611,251.850952,3.590000,5.360000,283.000000,329.494415,1524812164000
Fix,gps,48.401165,15.580608,250.760132,3.500000,4.288000,330.500000,302.856079,1524812165000
Fix,gps,48.401181,15.580598,252.680664,3.220000,4.288000,333.700012,52.755188,1524812166000
Fix,gps,48.401200,15.580570,253.225952,2.670000,4.288000,307.100006,349.625397,1524812167000
Fix,gps,48.401206,15.580545,253.869507,2.130000,4.288000,286.100006,353.565826,1524812168000
Fix,gps,48.401203,15.580525,252.964966,1.580000,3.216000,251.699997,309.854858,1524812169000
Fix,gps,48.401205,15.580505,251.998962,1.320000,3.216000,251.699997,271.207184,1524812170000
Fix,gps,48.401204,15.580495,253.328369,0.760000,3.216000,333.500000,257.675995,1524812171000
Fix,gps,48.401202,15.580492,252.558960,0.440000,3.216000,333.500000,220.627609,1524812172000
Fix,gps,48.401200,15.580491,253.242310,0.260000,3.216000,333.500000,223.045502,1524812173000
Fix,gps,48.401202,15.580490,251.548096,0.000000,3.216000,0.000000,224.591248,1524812174000
Fix,gps,48.401203,15.580491,252.072327,0.000000,9.648001,0.000000,223.518234,1524812175000
Fix,gps,48.401204,15.580492,252.937073,0.000000,9.648001,0.000000,226.557755,1524812176000
Fix,gps,48.401204,15.580492,252.720520,0.000000,9.648001,0.000000,223.265350,1524812177000
Fix,gps,48.401203,15.580493,253.235596,0.000000,9.648001,0.000000,226.620834,1524812178000
Fix,gps,48.401203,15.580494,253.397217,0.000000,9.648001,0.000000,225.861740,1524812179000
Fix,gps,48.401204,15.580495,253.790344,0.000000,9.648001,0.000000,218.525970,1524812180000
Fix,gps,48.401204,15.580496,253.882080,0.000000,9.648001,0.000000,214.594315,1524812181000
Fix,gps,48.401206,15.580496,253.341675,0.000000,10.720000,0.000000,228.618698,1524812182000
Fix,gps,48.401208,15.580495,253.742798,0.000000,9.648001,0.000000,334.874756,1524812183000
Fix,gps,48.401211,15.580490,254.196594,0.000000,10.720000,0.000000,241.568146,1524812184000
Fix,gps,48.401215,15.580486,254.839844,0.000000,10.720000,0.000000,286.040039,1524812185000
Fix,gps,48.401216,15.580484,254.815247,0.000000,10.720000,0.000000,285.313324,1524812186000
