# 
# Header Description:
# 
# Version: v2.0.0.1 Platform: 8.1.0 Manufacturer: Google Model: Pixel 2
# 
# Raw,ElapsedRealtimeMillis,TimeNanos,LeapSecond,TimeUncertaintyNanos,FullBiasNanos,BiasNanos,BiasUncertaintyNanos,DriftNanosPerSecond,DriftUncertaintyNanosPerSecond,HardwareClockDiscontinuityCount,Svid,TimeOffsetNanos,State,ReceivedSvTimeNanos,ReceivedSvTimeUncertaintyNanos,Cn0DbHz,PseudorangeRateMetersPerSecond,PseudorangeRateUncertaintyMetersPerSecond,AccumulatedDeltaRangeState,AccumulatedDeltaRangeMeters,AccumulatedDeltaRangeUncertaintyMeters,CarrierFrequencyHz,CarrierCycles,CarrierPhase,CarrierPhaseUncertainty,MultipathIndicator,SnrInDb,ConstellationType,AgcDb,CarrierFrequencyHz
# 
# Fix,Provider,Latitude,Longitude,Altitude,Speed,Accuracy,Bearing,Orientation,(UTC)TimeInMs
# 
# Nav,Svid,Type,Status,MessageId,Sub-messageId,Data(Bytes)
# 
Fix,gps,48.357430,15.610548,305.201111,0.000000,10.720000,0.000000,88.270325,1524811296000
Fix,gps,48.357432,15.610547,305.461914,0.000000,10.720000,0.000000,87.198303,1524811297000
Fix,gps,48.357432,15.610547,305.550720,0.000000,10.720000,0.000000,78.579010,1524811298000
Fix,gps,48.357432,15.610547,305.515015,0.000000,10.720000,0.000000,77.991974,1524811299000
Fix,gps,48.357432,15.610547,305.567749,0.000000,10.720000,0.000000,85.662811,1524811300000
Fix,gps,48.357432,15.610547,305.567261,0.000000,10.720000,0.000000,86.277374,1524811301000
Fix,gps,48.357432,15.610547,305.573853,0.000000,10.720000,0.000000,86.023560,1524811302000
Fix,gps,48.357432,15.610547,305.570313,0.000000,9.648001,0.000000,82.692078,1524811303000
Fix,gps,48.357432,15.610547,305.574646,0.000000,8.576000,0.000000,81.889618,1524811304000
Fix,gps,48.357432,15.610547,305.592102,0.000000,8.576000,0.000000,85.384460,1524811305000
Fix,gps,48.357432,15.610547,305.586060,0.000000,8.576000,0.000000,84.885803,1524811306000
Fix,gps,48.357432,15.610547,305.607300,0.000000,8.576000,0.000000,83.653320,1524811307000
Fix,gps,48.357432,15.610547,305.616211,0.000000,7.504000,0.000000,87.201385,1524811308000
Fix,gps,48.357432,15.610547,305.609741,0.000000,7.504000,0.000000,83.653351,1524811309000
Fix,gps,48.357432,15.610547,305.624756,0.000000,7.504000,0.000000,83.627960,1524811310000
Fix,gps,48.357432,15.610547,305.631470,0.000000,7.504000,0.000000,85.321014,1524811311000
Fix,gps,48.357433,15.610547,305.659546,0.000000,8.576000,0.000000,82.781006,1524811312000
Fix,gps,48.357433,15.610547,305.676025,0.000000,6.432000,0.000000,82.780243,1524811313000
Fix,gps,48.357433,15.610547,305.673950,0.000000,6.432000,0.000000,82.739227,1524811314000
Fix,gps,48.357433,15.610547,305.672607,0.000000,5.360000,0.000000,90.450043,1524811315000
Fix,gps,48.357415,15.610541,306.420654,0.950000,4.288000,169.500000,98.013245,1524811316000
Fix,gps,48.357412,15.610536,304.648071,0.750000,4.288000,155.000000,59.862762,1524811317000
Fix,gps,48.357423,15.610541,298.908936,0.700000,4.288000,159.399994,71.118378,1524811318000
Fix,gps,48.357421,15.610544,297.685425,0.990000,4.288000,159.600006,82.209778,1524811319000
Fix,gps,48.357424,15.610551,293.930176,1.040000,4.288000,159.300003,90.825623,1524811320000
Fix,gps,48.357416,15.610555,293.658691,1.050000,4.288000,159.399994,106.923370,1524811321000
Fix,gps,48.357407,15.610560,294.064697,1.260000,4.288000,144.399994,98.250610,1524811322000
Fix,gps,48.357393,15.610573,293.963501,1.430000,4.288000,144.699997,91.724030,1524811323000
Fix,gps,48.357385,15.610576,292.549438,1.710000,4.288000,135.800003,87.639435,1524811324000
Fix,gps,48.357369,15.610583,292.134705,1.370000,4.288000,135.199997,82.208710,1524811325000
Fix,gps,48.357353,15.610599,294.823364,1.940000,4.288000,128.000000,98.170746,1524811326000
Fix,gps,48.357343,15.610617,294.383911,1.790000,5.360000,129.500000,69.375946,1524811327000
Fix,gps,48.357330,15.610634,293.893311,1.970000,5.360000,140.600006,65.447052,1524811328000
Fix,gps,48.357317,15.610650,295.487549,1.980000,5.360000,144.100006,74.771729,1524811329000
Fix,gps,48.357302,15.610661,296.439087,1.920000,5.360000,144.100006,100.300446,1524811330000
Fix,gps,48.357286,15.610671,296.374817,2.040000,5.360000,149.500000,75.504425,1524811331000
Fix,gps,48.357269,15.610680,297.434937,2.110000,5.360000,151.800003,78.332886,1524811332000
Fix,gps,48.357252,15.610687,297.552979,1.960000,5.360000,154.000000,109.842377,1524811333000
Fix,gps,48.357236,15.610692,298.573975,1.590000,6.432000,153.600006,90.720978,1524811334000
Fix,gps,48.357223,15.610695,298.577881,1.630000,6.432000,153.800003,97.567169,1524811335000
Fix,gps,48.357216,15.610696,299.357666,0.860000,6.432000,143.300003,96.882111,1524811336000
Fix,gps,48.357213,15.610696,298.841675,0.570000,6.432000,143.100006,83.179657,1524811337000
Fix,gps,48.357212,15.610696,299.029053,0.470000,6.432000,143.000000,77.653534,1524811338000
Fix,gps,48.357211,15.610701,298.431274,1.220000,5.360000,142.300003,94.842438,1524811339000
Fix,gps,48.357208,15.610718,297.084412,1.930000,5.360000,96.300003,88.898560,1524811340000
Fix,gps,48.357208,15.610748,298.720703,2.590000,4.288000,80.800003,74.137573,1524811341000
Fix,gps,48.357217,15.610779,298.638550,2.810000,4.288000,61.799999,58.327179,1524811342000
Fix,gps,48.357233,15.610818,299.179565,3.680000,4.288000,61.700001,37.874512,1524811343000
Fix,gps,48.357253,15.610860,302.174438,4.010000,4.288000,60.000000,42.949738,1524811344000
Fix,gps,48.357276,15.610905,301.932678,4.530000,4.288000,59.299999,38.009491,1524811345000
Fix,gps,48.357300,15.610954,300.266113,4.640000,4.288000,58.700001,46.677338,1524811346000
Fix,gps,48.357324,15.611001,301.132080,4.210000,9.648001,57.299999,33.814667,1524811347000
Fix,gps,48.357348,15.611046,301.110962,4.280000,9.648001,55.799999,45.509583,1524811348000
Fix,gps,48.357373,15.611092,300.930786,4.510000,10.720000,54.200001,36.085327,1524811349000
Fix,gps,48.357401,15.611137,300.237915,4.500000,11.792000,52.599998,32.884003,1524811350000
Fix,gps,48.357430,15.611178,300.223511,4.240000,12.864000,49.900002,44.675018,1524811351000
Fix,gps,48.357459,15.611215,300.176880,4.120000,13.936001,46.500000,40.780243,1524811352000
Fix,gps,48.357478,15.611242,299.977539,2.660000,11.792000,45.799999,40.355255,1524811353000
Fix,gps,48.357489,15.611257,299.591064,1.810000,10.720000,48.900002,49.527863,1524811354000
Fix,gps,48.357496,15.611270,299.161499,1.700000,10.720000,49.799999,44.410278,1524811355000
Fix,gps,48.357502,15.611287,297.530518,1.720000,10.720000,49.799999,32.456696,1524811356000
Fix,gps,48.357509,15.611295,297.432861,1.290000,10.720000,49.599998,54.762115,1524811357000
Fix,gps,48.357533,15.611288,298.473999,3.140000,10.720000,2.300000,49.341980,1524811358000
Fix,gps,48.357594,15.611152,297.360474,5.010000,9.648001,309.600006,26.604095,1524811359000
Fix,gps,48.357627,15.611073,296.132690,6.200000,9.648001,303.799988,7.732452,1524811360000
Fix,gps,48.357663,15.610989,296.390747,7.350000,9.648001,299.200012,355.813477,1524811361000
Fix,gps,48.357686,15.610898,296.827820,7.930000,10.720000,295.899994,2.665314,1524811362000
Fix,gps,48.357720,15.610799,297.116211,8.590000,10.720000,294.899994,346.912933,1524811363000
Fix,gps,48.357750,15.610687,297.391235,8.670000,10.720000,295.000000,344.323914,1524811364000
Fix,gps,48.357812,15.610550,297.963928,10.150000,11.792000,298.299988,354.093048,1524811365000
Fix,gps,48.357894,15.610460,299.155396,10.160000,11.792000,307.100006,342.634705,1524811366000
Fix,gps,48.357908,15.610339,300.477661,9.360000,11.792000,299.200012,343.151337,1524811367000
Fix,gps,48.357862,15.610225,300.051331,8.200000,11.792000,289.100006,315.097931,1524811368000
Fix,gps,48.357849,15.610113,299.262573,8.120000,12.864000,284.700012,301.120331,1524811369000
Fix,gps,48.357846,15.610026,298.376465,7.530000,12.864000,282.799988,343.703125,1524811370000
Fix,gps,48.357920,15.609976,298.626587,6.910000,11.792000,304.799988,329.714783,1524811371000
Fix,gps,48.357988,15.609952,298.508972,6.530000,11.792000,317.899994,310.665283,1524811372000
Fix,gps,48.358123,15.609982,296.201111,8.930000,10.720000,355.200012,351.817566,1524811373000
Fix,gps,48.358221,15.609978,296.299316,9.470000,10.720000,2.100000,18.987518,1524811374000
Fix,gps,48.358326,15.609985,295.806213,10.810000,10.720000,3.200000,15.081146,1524811375000
Fix,gps,48.358429,15.610011,296.112427,11.510000,10.720000,7.000000,17.788605,1524811376000
Fix,gps,48.358540,15.610033,296.425293,12.210000,10.720000,7.600000,358.818054,1524811377000
Fix,gps,48.358645,15.610064,296.403259,12.730000,9.648001,8.700000,10.910339,1524811378000
Fix,gps,48.358762,15.610086,296.983154,13.040000,9.648001,8.700000,6.675995,1524811379000
Fix,gps,48.358870,15.610110,297.216675,12.480000,9.648001,6.600000,17.379852,1524811380000
Fix,gps,48.358995,15.610157,297.199829,13.700000,9.648001,8.600000,3.821747,1524811381000
Fix,gps,48.359130,15.610184,296.775146,14.110000,9.648001,8.900000,23.688141,1524811382000
Fix,gps,48.359258,15.610225,296.328796,14.510000,9.648001,9.900000,20.791809,1524811383000
Fix,gps,48.359401,15.610262,297.671021,14.510000,9.648001,9.800000,15.173798,1524811384000
Fix,gps,48.359522,15.610308,298.216064,14.780000,9.648001,9.600000,30.957489,1524811385000
Fix,gps,48.359656,15.610313,298.434814,14.650000,9.648001,6.900000,33.445862,1524811386000
Fix,gps,48.359783,15.610324,298.221130,14.380000,9.648001,3.900000,22.882294,1524811387000
Fix,gps,48.359915,15.610318,298.068054,14.070000,9.648001,359.700012,27.773499,1524811388000
Fix,gps,48.360040,15.610311,299.339783,13.830000,9.648001,357.200012,12.540192,1524811389000
Fix,gps,48.360162,15.610304,299.757813,13.660000,9.648001,357.100006,356.482208,1524811390000
Fix,gps,48.360290,15.610299,300.843994,13.440000,9.648001,356.600006,21.982208,1524811391000
Fix,gps,48.360403,15.610287,301.363708,13.250000,9.648001,354.700012,27.691833,1524811392000
Fix,gps,48.360514,15.610265,301.897278,13.110000,9.648001,351.500000,44.609161,1524811393000
Fix,gps,48.360625,15.610212,299.912964,12.840000,9.648001,344.799988,46.977692,1524811394000
Fix,gps,48.360730,15.610154,300.144653,12.450000,9.648001,340.200012,52.185577,1524811395000
Fix,gps,48.360816,15.610043,300.088257,12.290000,9.648001,325.000000,28.318634,1524811396000
Fix,gps,48.360897,15.609926,298.960815,12.190000,3.216000,315.100006,4.475281,1524811397000
Fix,gps,48.360963,15.609800,298.138184,12.030000,3.216000,309.600006,326.913666,1524811398000
Fix,gps,48.361038,15.609675,296.186707,11.970000,3.216000,311.200012,332.338806,1524811399000
Fix,gps,48.361113,15.609556,296.063232,12.180000,3.216000,315.700012,331.659729,1524811400000
Fix,gps,48.361194,15.609450,295.514526,12.120000,3.216000,318.600006,345.012146,1524811401000
Fix,gps,48.361286,15.609352,294.527344,12.390000,3.216000,321.600006,352.628204,1524811402000
Fix,gps,48.361375,15.609245,293.591980,12.550000,4.288000,321.700012,12.795563,1524811403000
Fix,gps,48.361460,15.609138,293.207153,12.360000,3.216000,318.899994,31.023773,1524811404000
Fix,gps,48.361535,15.609039,292.605042,11.930000,4.288000,320.500000,28.152985,1524811405000
Fix,gps,48.361555,15.608866,290.534790,11.910000,4.288000,294.600006,30.031281,1524811406000
Fix,gps,48.361578,15.608707,290.609985,11.810000,4.288000,285.000000,19.774658,1524811407000
Fix,gps,48.361613,15.608556,290.694336,12.260000,4.288000,281.700012,334.467621,1524811408000
Fix,gps,48.361555,15.608417,289.890869,12.470000,5.360000,274.700012,323.493347,1524811409000
Fix,gps,48.361540,15.608265,286.527588,12.380000,5.360000,277.799988,299.178711,1524811410000
Fix,gps,48.361567,15.608104,286.080200,12.000000,5.360000,285.000000,279.344910,1524811411000
Fix,gps,48.361603,15.607955,285.303833,11.390000,5.360000,288.899994,297.131195,1524811412000
Fix,gps,48.361649,15.607819,285.166870,10.970000,6.432000,295.700012,331.474701,1524811413000
Fix,gps,48.361712,15.607683,285.715271,11.520000,8.576000,300.399994,340.330078,1524811414000
Fix,gps,48.361831,15.607566,285.907227,12.760000,7.504000,312.700012,340.997192,1524811415000
Fix,gps,48.361913,15.607440,286.227295,12.790000,7.504000,314.399994,340.416199,1524811416000
Fix,gps,48.362006,15.607331,287.216919,12.920000,7.504000,316.399994,335.425415,1524811417000
Fix,gps,48.362097,15.607210,287.941589,12.820000,7.504000,317.700012,19.470459,1524811418000
Fix,gps,48.362165,15.607102,287.961792,12.650000,6.432000,318.399994,354.220337,1524811419000
Fix,gps,48.362258,15.606972,290.048584,12.580000,6.432000,317.500000,357.826294,1524811420000
Fix,gps,48.362344,15.606853,290.875000,12.530000,7.504000,317.500000,341.098816,1524811421000
Fix,gps,48.362425,15.606748,290.027954,12.420000,6.432000,316.799988,0.385803,1524811422000
Fix,gps,48.362504,15.606634,290.807251,12.590000,7.504000,315.000000,8.495239,1524811423000
Fix,gps,48.362583,15.606510,291.672546,12.710000,8.576000,312.899994,12.002197,1524811424000
Fix,gps,48.362658,15.606377,291.107422,12.440000,7.504000,311.500000,315.352539,1524811425000
Fix,gps,48.362728,15.606249,292.038452,12.410000,6.432000,309.600006,302.188812,1524811426000
Fix,gps,48.362822,15.606142,292.018250,12.540000,6.432000,314.200012,356.290588,1524811427000
Fix,gps,48.362910,15.606020,292.300537,12.920000,6.432000,316.899994,338.829590,1524811428000
Fix,gps,48.362995,15.605899,292.645508,12.970000,5.360000,317.600006,359.965973,1524811429000
Fix,gps,48.363109,15.605774,293.390869,12.760000,5.360000,318.200012,329.005768,1524811430000
Fix,gps,48.363218,15.605653,294.343628,13.040000,5.360000,318.399994,357.830597,1524811431000
Fix,gps,48.363316,15.605524,295.828125,12.960000,5.360000,318.500000,345.781494,1524811432000
Fix,gps,48.363402,15.605403,295.858887,13.030000,4.288000,319.299988,351.473145,1524811433000
Fix,gps,48.363491,15.605286,295.872620,13.110000,4.288000,319.500000,333.678711,1524811434000
Fix,gps,48.363583,15.605163,296.350464,13.240000,4.288000,318.899994,325.670624,1524811435000
Fix,gps,48.363677,15.605046,297.634827,13.180000,4.288000,320.299988,1.927765,1524811436000
Fix,gps,48.363754,15.604932,298.241150,12.950000,5.360000,319.899994,341.649414,1524811437000
Fix,gps,48.363828,15.604822,297.273193,12.790000,5.360000,321.399994,1.444855,1524811438000
Fix,gps,48.363926,15.604715,297.464844,12.860000,5.360000,322.399994,352.830933,1524811439000
Fix,gps,48.364020,15.604607,297.673584,12.760000,5.360000,321.299988,5.569611,1524811440000
Fix,gps,48.364101,15.604507,297.600220,12.800000,4.288000,318.500000,6.035858,1524811441000
Fix,gps,48.364145,15.604377,296.989990,13.290000,5.360000,312.899994,346.496704,1524811442000
Fix,gps,48.364230,15.604238,297.381348,13.680000,4.288000,311.200012,354.682953,1524811443000
Fix,gps,48.364299,15.604086,296.812500,13.860000,4.288000,310.000000,3.278473,1524811444000
Fix,gps,48.364374,15.603923,295.727661,14.030000,4.288000,309.000000,10.247650,1524811445000
Fix,gps,48.364449,15.603781,294.500061,14.310000,4.288000,307.399994,349.032532,1524811446000
Fix,gps,48.364522,15.603617,294.332642,14.540000,4.288000,306.299988,324.931854,1524811447000
Fix,gps,48.364604,15.603463,292.612427,14.790000,5.360000,306.200012,337.260681,1524811448000
Fix,gps,48.364687,15.603301,291.652100,15.210000,5.360000,306.600006,0.326813,1524811449000
Fix,gps,48.364768,15.603123,290.413452,15.300000,5.360000,306.000000,343.016449,1524811450000
Fix,gps,48.364849,15.602956,292.867859,15.460000,5.360000,305.700012,336.209961,1524811451000
Fix,gps,48.364918,15.602784,292.983765,15.570000,6.432000,304.899994,351.600647,1524811452000
Fix,gps,48.364997,15.602600,291.787964,15.520000,6.432000,303.799988,352.858307,1524811453000
Fix,gps,48.365068,15.602430,290.536011,15.390000,6.432000,303.000000,344.308136,1524811454000
Fix,gps,48.365142,15.602256,288.751282,15.290000,6.432000,301.799988,354.332764,1524811455000
Fix,gps,48.365218,15.602079,288.717896,15.330000,6.432000,302.100006,337.848022,1524811456000
Fix,gps,48.365292,15.601892,286.905151,15.150000,6.432000,299.600006,352.077850,1524811457000
Fix,gps,48.365360,15.601719,285.632385,14.850000,6.432000,300.000000,328.380249,1524811458000
Fix,gps,48.365440,15.601546,285.428955,14.890000,5.360000,302.899994,324.189850,1524811459000
Fix,gps,48.365520,15.601387,285.732666,14.720000,5.360000,305.100006,336.725433,1524811460000
Fix,gps,48.365603,15.601225,285.249207,14.880000,5.360000,306.700012,345.623199,1524811461000
Fix,gps,48.365685,15.601064,284.698242,14.950000,5.360000,305.799988,7.108032,1524811462000
Fix,gps,48.365762,15.600897,283.947144,15.110000,5.360000,303.000000,5.280518,1524811463000
Fix,gps,48.365835,15.600720,283.671509,15.360000,5.360000,301.200012,9.035675,1524811464000
Fix,gps,48.365904,15.600540,283.242493,15.550000,6.432000,298.200012,359.577667,1524811465000
Fix,gps,48.365957,15.600358,283.882324,15.230000,7.504000,295.600006,331.415497,1524811466000
Fix,gps,48.366011,15.600178,284.239990,15.040000,7.504000,294.500000,347.915924,1524811467000
Fix,gps,48.366073,15.599993,283.585388,15.070000,8.576000,294.899994,333.288696,1524811468000
Fix,gps,48.366138,15.599809,283.874512,14.660000,7.504000,294.799988,326.554230,1524811469000
Fix,gps,48.366204,15.599640,287.141357,14.530000,8.576000,296.100006,320.666901,1524811470000
Fix,gps,48.366265,15.599484,287.692200,14.260000,7.504000,297.799988,336.213776,1524811471000
Fix,gps,48.366323,15.599301,285.130127,13.950000,8.576000,296.000000,11.160767,1524811472000
Fix,gps,48.366388,15.599131,286.823669,14.000000,7.504000,292.100006,9.059906,1524811473000
Fix,gps,48.366411,15.598953,285.769775,14.100000,7.504000,290.799988,4.143646,1524811474000
Fix,gps,48.366437,15.598772,285.500854,13.850000,7.504000,284.399994,333.161591,1524811475000
Fix,gps,48.366471,15.598582,285.927002,13.650000,7.504000,283.500000,309.892242,1524811476000
Fix,gps,48.366509,15.598405,286.127197,13.490000,6.432000,284.700012,332.346558,1524811477000
Fix,gps,48.366530,15.598235,285.309082,13.330000,6.432000,286.000000,340.229584,1524811478000
Fix,gps,48.366568,15.598068,285.165894,13.210000,6.432000,285.700012,353.987610,1524811479000
Fix,gps,48.366577,15.597897,284.461487,13.100000,5.360000,282.200012,352.642334,1524811480000
Fix,gps,48.366595,15.597723,284.511719,13.070000,5.360000,279.100006,349.652527,1524811481000
Fix,gps,48.366615,15.597536,284.889404,13.290000,5.360000,278.100006,331.485687,1524811482000
Fix,gps,48.366632,15.597369,284.151489,13.330000,5.360000,276.799988,348.396332,1524811483000
Fix,gps,48.366662,15.597181,284.828247,13.340000,4.288000,276.799988,320.214691,1524811484000
Fix,gps,48.366684,15.596993,283.557617,13.460000,4.288000,277.700012,324.685028,1524811485000
Fix,gps,48.366694,15.596820,284.357544,13.440000,4.288000,277.899994,320.629150,1524811486000
Fix,gps,48.366721,15.596642,284.526489,13.290000,4.288000,280.799988,312.128876,1524811487000
Fix,gps,48.366748,15.596477,284.800781,13.250000,4.288000,283.299988,311.792145,1524811488000
Fix,gps,48.366756,15.596312,284.353394,13.020000,4.288000,282.899994,336.711365,1524811489000
Fix,gps,48.366797,15.596158,284.343567,13.030000,4.288000,289.700012,311.139221,1524811490000
Fix,gps,48.366846,15.596019,284.172729,12.240000,5.360000,296.299988,345.685242,1524811491000
Fix,gps,48.366901,15.595884,282.198730,11.880000,5.360000,296.000000,2.691345,1524811492000
Fix,gps,48.366964,15.595769,283.110168,10.870000,5.360000,304.899994,332.129028,1524811493000
Fix,gps,48.367031,15.595660,282.947876,10.740000,5.360000,309.700012,37.477020,1524811494000
Fix,gps,48.367093,15.595555,284.533203,10.530000,5.360000,310.000000,358.621674,1524811495000
Fix,gps,48.367160,15.595462,282.602051,10.480000,5.360000,310.700012,352.639618,1524811496000
Fix,gps,48.367214,15.595352,282.479492,10.190000,5.360000,310.899994,351.739044,1524811497000
Fix,gps,48.367257,15.595241,281.666504,9.750000,5.360000,310.899994,341.094513,1524811498000
Fix,gps,48.367311,15.595150,283.053955,10.180000,6.432000,310.399994,333.339294,1524811499000
Fix,gps,48.367360,15.595041,282.808777,10.150000,6.432000,312.399994,339.602844,1524811500000
Fix,gps,48.367441,15.594933,285.479126,10.250000,6.432000,317.100006,346.929840,1524811501000
Fix,gps,48.367498,15.594820,284.748413,9.980000,6.432000,317.299988,11.309814,1524811502000
Fix,gps,48.367573,15.594729,284.751099,9.720000,6.432000,316.200012,354.348694,1524811503000
Fix,gps,48.367630,15.594638,284.332947,9.410000,6.432000,314.700012,342.898315,1524811504000
Fix,gps,48.367685,15.594546,283.822693,8.880000,6.432000,311.799988,330.627502,1524811505000
Fix,gps,48.367727,15.594470,283.061340,8.580000,6.432000,312.100006,353.073456,1524811506000
Fix,gps,48.367764,15.594403,284.053528,7.630000,6.432000,316.000000,339.604431,1524811507000
Fix,gps,48.367832,15.594344,287.022644,7.250000,7.504000,314.700012,308.399414,1524811508000
Fix,gps,48.367881,15.594318,286.944824,6.000000,7.504000,342.399994,309.560059,1524811509000
Fix,gps,48.367943,15.594320,285.350220,6.950000,7.504000,358.100006,348.275208,1524811510000
Fix,gps,48.368024,15.594333,285.219788,8.030000,8.576000,6.200000,28.097778,1524811511000
Fix,gps,48.368104,15.594354,283.718323,8.310000,9.648001,10.400000,45.064240,1524811512000
Fix,gps,48.368185,15.594372,282.810974,8.640000,8.576000,7.400000,51.910797,1524811513000
Fix,gps,48.368281,15.594327,282.398865,8.830000,7.504000,347.600006,51.973297,1524811514000
Fix,gps,48.368365,15.594273,283.747070,9.160000,7.504000,335.500000,20.583069,1524811515000
Fix,gps,48.368429,15.594199,283.101440,9.210000,7.504000,328.899994,10.865723,1524811516000
Fix,gps,48.368490,15.594119,282.538330,9.410000,7.504000,323.000000,20.152557,1524811517000
Fix,gps,48.368554,15.594015,281.910400,10.030000,6.432000,318.100006,34.260284,1524811518000
Fix,gps,48.368592,15.593919,281.521729,10.410000,5.360000,310.299988,0.710541,1524811519000
Fix,gps,48.368651,15.593809,282.193115,10.910000,5.360000,308.399994,343.508026,1524811520000
Fix,gps,48.368712,15.593687,279.882446,10.940000,5.360000,307.000000,350.866608,1524811521000
Fix,gps,48.368765,15.593569,279.514648,10.910000,5.360000,305.700012,329.814880,1524811522000
Fix,gps,48.368830,15.593456,280.139038,10.860000,5.360000,304.500000,342.103668,1524811523000
Fix,gps,48.368893,15.593346,282.139526,10.550000,5.360000,305.200012,346.003601,1524811524000
Fix,gps,48.368942,15.593231,282.664734,10.250000,5.360000,304.600006,343.162018,1524811525000
Fix,gps,48.368996,15.593129,281.308594,9.790000,5.360000,305.000000,344.807190,1524811526000
Fix,gps,48.369041,15.593020,280.757690,9.360000,5.360000,303.399994,354.448883,1524811527000
Fix,gps,48.369071,15.592909,280.438843,9.070000,6.432000,300.700012,18.396301,1524811528000
Fix,gps,48.369099,15.592807,280.190002,8.450000,6.432000,295.700012,351.933899,1524811529000
Fix,gps,48.369129,15.592709,280.935059,8.100000,7.504000,294.500000,344.279175,1524811530000
Fix,gps,48.369146,15.592622,281.445801,7.310000,7.504000,291.799988,344.161469,1524811531000
Fix,gps,48.369166,15.592544,282.036743,6.390000,7.504000,290.100006,304.942902,1524811532000
Fix,gps,48.369168,15.592495,281.353699,5.380000,7.504000,291.600006,274.722260,1524811533000
Fix,gps,48.369196,15.592458,281.243958,3.960000,9.648001,310.100006,295.100800,1524811534000
Fix,gps,48.369266,15.592454,283.000488,5.340000,7.504000,352.100006,307.578552,1524811535000
Fix,gps,48.369321,15.592491,285.045898,5.160000,7.504000,21.799999,327.593872,1524811536000
Fix,gps,48.369360,15.592584,285.525146,6.360000,5.360000,55.900002,10.511841,1524811537000
Fix,gps,48.369395,15.592669,285.895813,7.200000,5.360000,59.700001,25.410034,1524811538000
Fix,gps,48.369425,15.592772,286.693604,7.970000,5.360000,67.199997,340.554962,1524811539000
Fix,gps,48.369428,15.592916,286.694824,9.400000,5.360000,84.099998,19.116669,1524811540000
Fix,gps,48.369413,15.593068,288.064453,10.570000,5.360000,92.500000,73.998352,1524811541000
Fix,gps,48.369405,15.593236,286.189941,11.510000,5.360000,90.199997,69.373413,1524811542000
Fix,gps,48.369405,15.593415,288.762817,12.320000,5.360000,84.699997,119.932068,1524811543000
Fix,gps,48.369429,15.593579,289.293396,12.790000,5.360000,80.199997,70.909454,1524811544000
Fix,gps,48.369468,15.593739,290.171997,12.420000,5.360000,73.800003,70.414703,1524811545000
Fix,gps,48.369500,15.593896,289.242493,11.850000,5.360000,73.300003,47.699097,1524811546000
Fix,gps,48.369542,15.594031,289.427612,11.490000,6.432000,70.400002,16.657379,1524811547000
Fix,gps,48.369591,15.594162,289.807861,11.280000,5.360000,67.900002,27.115906,1524811548000
Fix,gps,48.369620,15.594316,290.226563,11.450000,6.432000,69.199997,29.819061,1524811549000
Fix,gps,48.369654,15.594452,290.811584,11.610000,6.432000,70.500000,27.967834,1524811550000
Fix,gps,48.369688,15.594597,290.423096,12.140000,5.360000,74.699997,11.102325,1524811551000
Fix,gps,48.369728,15.594755,291.651733,12.430000,6.432000,78.300003,12.684570,1524811552000
Fix,gps,48.369752,15.594919,290.967529,12.780000,6.432000,79.699997,19.749939,1524811553000
Fix,gps,48.369759,15.595099,290.176636,13.070000,6.432000,80.699997,37.788879,1524811554000
Fix,gps,48.369772,15.595280,290.209717,13.370000,7.504000,83.099998,36.025299,1524811555000
Fix,gps,48.369759,15.595471,288.427002,13.640000,7.504000,87.099998,73.823639,1524811556000
Fix,gps,48.369768,15.595654,289.902039,13.840000,6.432000,86.099998,86.109894,1524811557000
Fix,gps,48.369780,15.595839,290.089355,13.940000,5.360000,84.300003,82.036774,1524811558000
Fix,gps,48.369775,15.596050,289.970032,14.160000,5.360000,79.800003,51.985199,1524811559000
Fix,gps,48.369808,15.596231,291.801270,14.210000,5.360000,75.400002,40.217804,1524811560000
Fix,gps,48.369841,15.596426,293.202881,14.530000,6.432000,73.900002,53.912384,1524811561000
Fix,gps,48.369884,15.596609,294.337952,14.630000,6.432000,71.400002,63.292908,1524811562000
Fix,gps,48.369938,15.596789,295.017334,14.630000,7.504000,69.500000,6.273163,1524811563000
Fix,gps,48.369955,15.597007,295.373718,14.810000,7.504000,71.900002,39.624603,1524811564000
Fix,gps,48.369989,15.597198,296.961670,14.970000,6.432000,73.099998,37.246368,1524811565000
Fix,gps,48.370019,15.597404,298.796753,15.040000,6.432000,74.099998,44.599731,1524811566000
Fix,gps,48.370063,15.597594,298.827515,14.920000,6.432000,74.000000,52.569641,1524811567000
Fix,gps,48.370082,15.597803,299.628845,14.690000,7.504000,75.800003,57.804077,1524811568000
Fix,gps,48.370117,15.597977,300.181274,13.770000,6.432000,75.000000,54.312988,1524811569000
Fix,gps,48.370151,15.598143,301.089233,12.920000,6.432000,74.699997,35.841644,1524811570000
Fix,gps,48.370187,15.598309,301.972656,12.630000,6.432000,74.900002,61.513336,1524811571000
Fix,gps,48.370224,15.598458,302.303833,12.050000,6.432000,74.199997,38.968140,1524811572000
Fix,gps,48.370256,15.598596,303.245056,10.960000,5.360000,72.800003,61.130768,1524811573000
Fix,gps,48.370274,15.598741,303.901733,10.310000,5.360000,72.599998,55.646942,1524811574000
Fix,gps,48.370302,15.598861,305.725281,9.840000,4.288000,70.699997,60.885864,1524811575000
Fix,gps,48.370335,15.598972,305.982910,9.610000,4.288000,67.900002,67.981354,1524811576000
Fix,gps,48.370404,15.599062,305.936768,9.170000,4.288000,55.799999,58.578217,1524811577000
Fix,gps,48.370452,15.599163,305.252686,8.810000,4.288000,52.900002,40.309357,1524811578000
Fix,gps,48.370508,15.599256,305.433350,8.700000,3.216000,43.200001,33.733459,1524811579000
Fix,gps,48.370560,15.599330,306.755859,8.160000,3.216000,41.700001,37.847473,1524811580000
Fix,gps,48.370622,15.599396,307.186646,8.000000,4.288000,33.500000,51.707703,1524811581000
Fix,gps,48.370683,15.599443,308.760986,7.690000,3.216000,24.799999,59.466034,1524811582000
Fix,gps,48.370752,15.599476,309.533813,7.520000,4.288000,20.500000,46.434479,1524811583000
Fix,gps,48.370813,15.599481,310.159180,7.620000,4.288000,3.100000,47.106445,1524811584000
Fix,gps,48.370910,15.599441,309.466919,8.280000,5.360000,355.200012,26.734192,1524811585000
Fix,gps,48.370985,15.599406,310.787598,8.280000,5.360000,347.000000,55.401123,1524811586000
Fix,gps,48.371060,15.599367,311.393677,8.500000,5.360000,340.500000,332.394196,1524811587000
Fix,gps,48.371125,15.599330,312.044556,8.690000,6.432000,338.100006,333.088989,1524811588000
Fix,gps,48.371180,15.599306,313.664612,8.770000,6.432000,342.500000,321.673523,1524811589000
Fix,gps,48.371285,15.599238,312.615784,9.390000,5.360000,346.600006,337.852875,1524811590000
Fix,gps,48.371361,15.599210,312.616943,10.170000,5.360000,348.000000,346.522217,1524811591000
Fix,gps,48.371465,15.599176,314.149719,11.200000,5.360000,350.100006,2.276855,1524811592000
Fix,gps,48.371570,15.599162,312.659912,12.300000,5.360000,350.500000,11.165741,1524811593000
Fix,gps,48.371681,15.599130,314.141479,12.440000,5.360000,348.500000,6.584656,1524811594000
Fix,gps,48.371791,15.599096,314.365479,13.230000,5.360000,346.899994,0.216339,1524811595000
Fix,gps,48.371916,15.599043,314.064270,14.000000,5.360000,344.200012,28.293732,1524811596000
Fix,gps,48.372041,15.598979,312.350098,14.350000,5.360000,339.899994,31.976776,1524811597000
Fix,gps,48.372164,15.598900,311.818970,14.630000,5.360000,335.700012,36.922028,1524811598000
Fix,gps,48.372269,15.598784,311.223633,14.680000,5.360000,326.299988,35.038757,1524811599000
Fix,gps,48.372366,15.598654,310.556030,15.070000,5.360000,319.399994,5.427002,1524811600000
Fix,gps,48.372473,15.598499,311.770142,15.500000,5.360000,317.000000,343.734497,1524811601000
Fix,gps,48.372574,15.598374,310.583252,15.810000,5.360000,318.100006,336.654266,1524811602000
Fix,gps,48.372686,15.598241,310.057251,16.090000,6.432000,320.899994,309.026459,1524811603000
Fix,gps,48.372813,15.598139,309.408203,16.059999,7.504000,327.799988,333.098969,1524811604000
Fix,gps,48.372961,15.598043,309.426331,16.549999,6.432000,334.100006,324.054779,1524811605000
Fix,gps,48.373117,15.597959,309.579712,16.580000,6.432000,339.200012,341.457947,1524811606000
Fix,gps,48.373265,15.597886,310.296265,16.770000,5.360000,341.399994,16.224426,1524811607000
Fix,gps,48.373397,15.597799,309.519897,16.860001,5.360000,338.100006,20.495941,1524811608000
Fix,gps,48.373530,15.597704,308.712524,16.910000,5.360000,336.100006,39.189056,1524811609000
Fix,gps,48.373671,15.597596,308.531494,17.309999,5.360000,332.600006,7.604950,1524811610000
Fix,gps,48.373791,15.597465,308.363403,17.430000,5.360000,329.500000,12.658173,1524811611000
Fix,gps,48.373923,15.597329,308.260742,17.490000,5.360000,327.700012,21.117493,1524811612000
Fix,gps,48.374047,15.597179,307.992920,17.270000,5.360000,324.600006,14.546326,1524811613000
Fix,gps,48.374172,15.597020,308.580688,17.010000,4.288000,322.000000,6.688751,1524811614000
Fix,gps,48.374289,15.596894,307.770020,16.700001,4.288000,319.899994,339.853333,1524811615000
Fix,gps,48.374406,15.596749,307.403198,16.410000,4.288000,318.700012,1.283203,1524811616000
Fix,gps,48.374516,15.596602,307.723511,15.950000,4.288000,317.899994,6.630157,1524811617000
Fix,gps,48.374620,15.596456,307.124695,15.510000,4.288000,316.899994,0.594910,1524811618000
Fix,gps,48.374721,15.596310,306.764771,15.260000,4.288000,317.100006,343.273834,1524811619000
Fix,gps,48.374826,15.596185,306.323242,14.940000,5.360000,319.000000,321.717773,1524811620000
Fix,gps,48.374932,15.596068,305.850830,14.500000,6.432000,322.000000,316.236145,1524811621000
Fix,gps,48.375061,15.596000,305.059326,14.310000,5.360000,332.200012,321.194977,1524811622000
Fix,gps,48.375169,15.595934,304.777832,13.900000,5.360000,340.500000,328.604767,1524811623000
Fix,gps,48.375295,15.595892,303.265869,13.850000,5.360000,348.399994,345.381531,1524811624000
Fix,gps,48.375419,15.595861,302.963440,13.840000,4.288000,350.299988,34.090668,1524811625000
Fix,gps,48.375575,15.595853,302.576965,13.340000,4.288000,349.399994,48.680023,1524811626000
Fix,gps,48.375675,15.595786,302.235596,13.470000,4.288000,339.399994,58.362061,1524811627000
Fix,gps,48.375775,15.595685,301.575806,13.800000,4.288000,326.200012,55.517212,1524811628000
Fix,gps,48.375841,15.595552,301.585938,14.270000,4.288000,312.700012,63.612000,1524811629000
Fix,gps,48.375920,15.595374,302.696289,15.080000,4.288000,302.600006,26.519775,1524811630000
Fix,gps,48.375990,15.595189,301.817139,15.950000,5.360000,300.100006,342.666931,1524811631000
Fix,gps,48.376057,15.594979,303.009644,17.070000,5.360000,297.100006,329.066986,1524811632000
Fix,gps,48.376108,15.594774,301.228760,17.490000,5.360000,294.399994,352.030609,1524811633000
Fix,gps,48.376164,15.594553,300.354126,17.639999,6.432000,294.799988,324.737701,1524811634000
Fix,gps,48.376238,15.594334,299.479797,17.740000,6.432000,294.899994,332.201508,1524811635000
Fix,gps,48.376295,15.594111,300.411987,17.959999,6.432000,296.399994,327.940979,1524811636000
Fix,gps,48.376366,15.593901,299.972778,17.950001,6.432000,297.600006,331.854584,1524811637000
Fix,gps,48.376439,15.593685,298.337524,18.180000,6.432000,300.700012,320.304169,1524811638000
Fix,gps,48.376522,15.593480,297.946899,18.270000,6.432000,303.000000,324.325317,1524811639000
Fix,gps,48.376644,15.593271,300.026855,18.980000,6.432000,308.600006,341.402069,1524811640000
Fix,gps,48.376744,15.593087,300.575317,18.370001,6.432000,307.899994,347.360443,1524811641000
Fix,gps,48.376852,15.592896,300.322449,18.250000,6.432000,308.500000,355.114990,1524811642000
Fix,gps,48.376954,15.592716,301.436951,18.360001,6.432000,307.799988,324.816681,1524811643000
Fix,gps,48.377058,15.592504,300.592896,18.750000,6.432000,309.500000,317.880310,1524811644000
Fix,gps,48.377165,15.592300,300.698975,19.219999,6.432000,312.100006,303.418091,1524811645000
Fix,gps,48.377283,15.592116,300.922180,19.660000,6.432000,313.700012,350.265778,1524811646000
Fix,gps,48.377397,15.591939,300.622925,19.299999,6.432000,315.700012,1.329346,1524811647000
Fix,gps,48.377527,15.591757,300.206177,19.260000,6.432000,316.299988,352.665405,1524811648000
Fix,gps,48.377624,15.591579,299.463379,18.639999,7.504000,315.799988,348.932434,1524811649000
Fix,gps,48.377744,15.591407,299.533936,18.219999,6.432000,315.799988,357.976532,1524811650000
Fix,gps,48.377839,15.591227,297.673279,17.969999,6.432000,313.100006,43.097961,1524811651000
Fix,gps,48.377937,15.591033,297.698120,17.830000,5.360000,309.700012,351.836548,1524811652000
Fix,gps,48.378037,15.590837,297.102783,17.830000,6.432000,308.200012,330.008087,1524811653000
Fix,gps,48.378140,15.590646,297.731812,18.030001,6.432000,308.100006,348.242676,1524811654000
Fix,gps,48.378245,15.590457,297.634033,18.129999,5.360000,308.200012,334.985870,1524811655000
Fix,gps,48.378336,15.590256,297.738525,18.309999,5.360000,309.200012,351.406403,1524811656000
Fix,gps,48.378447,15.590058,300.188965,18.110001,5.360000,309.899994,338.524445,1524811657000
Fix,gps,48.378551,15.589863,299.284912,18.180000,6.432000,310.700012,315.852478,1524811658000
Fix,gps,48.378663,15.589699,297.661987,18.309999,6.432000,312.899994,340.274200,1524811659000
Fix,gps,48.378780,15.589521,297.735840,18.370001,6.432000,313.000000,8.227203,1524811660000
Fix,gps,48.378897,15.589349,295.721680,18.420000,6.432000,311.600006,3.987091,1524811661000
Fix,gps,48.379001,15.589154,295.144165,18.530001,6.432000,309.000000,1.448944,1524811662000
Fix,gps,48.379083,15.588934,294.667603,18.480000,5.360000,305.299988,2.785156,1524811663000
Fix,gps,48.379179,15.588727,294.838806,18.500000,5.360000,302.200012,342.001404,1524811664000
Fix,gps,48.379273,15.588514,294.961182,18.490000,5.360000,301.399994,355.485168,1524811665000
Fix,gps,48.379345,15.588304,294.927368,18.450001,5.360000,300.200012,353.143097,1524811666000
Fix,gps,48.379397,15.588084,293.818359,18.270000,5.360000,298.299988,1.823822,1524811667000
Fix,gps,48.379458,15.587862,292.393066,18.090000,5.360000,294.200012,11.697113,1524811668000
Fix,gps,48.379520,15.587636,292.588440,18.280001,5.360000,292.100006,353.505493,1524811669000
Fix,gps,48.379571,15.587405,292.212646,18.280001,6.432000,290.600006,328.638641,1524811670000
Fix,gps,48.379615,15.587172,291.666260,18.219999,8.576000,289.000000,324.345093,1524811671000
Fix,gps,48.379668,15.586941,291.737000,18.240000,10.720000,288.799988,328.823639,1524811672000
Fix,gps,48.379746,15.586709,292.343079,18.450001,11.792000,290.500000,328.627136,1524811673000
Fix,gps,48.379777,15.586481,292.108643,18.020000,12.864000,288.399994,330.957642,1524811674000
Fix,gps,48.379831,15.586249,292.196533,17.900000,11.792000,288.600006,331.347839,1524811675000
Fix,gps,48.379882,15.586033,292.545166,17.170000,10.720000,288.200012,324.500488,1524811676000
Fix,gps,48.379930,15.585845,291.892090,16.690001,8.576000,287.299988,320.787476,1524811677000
Fix,gps,48.379983,15.585631,291.527710,16.379999,8.576000,287.500000,326.860962,1524811678000
Fix,gps,48.380015,15.585427,291.390137,16.010000,8.576000,286.799988,333.048676,1524811679000
Fix,gps,48.380062,15.585227,291.815186,15.700000,8.576000,287.100006,326.342163,1524811680000
Fix,gps,48.380103,15.585026,291.943726,15.340000,8.576000,286.500000,338.634094,1524811681000
Fix,gps,48.380126,15.584829,292.013367,14.920000,7.504000,286.100006,325.467224,1524811682000
Fix,gps,48.380145,15.584643,291.177490,14.560000,6.432000,286.000000,324.633545,1524811683000
Fix,gps,48.380170,15.584448,292.635864,14.220000,5.360000,286.200012,330.808533,1524811684000
Fix,gps,48.380182,15.584267,288.092285,13.450000,6.432000,287.899994,303.145782,1524811685000
Fix,gps,48.380238,15.584106,287.279480,12.810000,6.432000,294.500000,268.750275,1524811686000
Fix,gps,48.380333,15.583987,287.350464,12.390000,6.432000,309.000000,282.356293,1524811687000
Fix,gps,48.380422,15.583880,286.297241,12.190000,7.504000,315.100006,290.898254,1524811688000
Fix,gps,48.380539,15.583861,287.299316,12.560000,6.432000,343.399994,355.624451,1524811689000
Fix,gps,48.380667,15.583817,287.579834,12.970000,6.432000,346.899994,356.859985,1524811690000
Fix,gps,48.380793,15.583784,287.270813,13.750000,6.432000,349.399994,8.195282,1524811691000
Fix,gps,48.380924,15.583755,287.637390,14.220000,6.432000,352.299988,7.113281,1524811692000
Fix,gps,48.381042,15.583729,286.674438,14.720000,5.360000,353.500000,10.477966,1524811693000
Fix,gps,48.381181,15.583703,287.339844,14.980000,5.360000,355.299988,5.552795,1524811694000
Fix,gps,48.381315,15.583704,286.784790,14.910000,5.360000,358.500000,9.948029,1524811695000
Fix,gps,48.381448,15.583709,286.845215,14.780000,5.360000,0.700000,10.368042,1524811696000
Fix,gps,48.381568,15.583706,285.560547,14.860000,5.360000,1.800000,10.324615,1524811697000
Fix,gps,48.381700,15.583719,285.567505,14.520000,5.360000,3.000000,23.602661,1524811698000
Fix,gps,48.381834,15.583733,285.202942,14.640000,5.360000,1.000000,19.218872,1524811699000
Fix,gps,48.381952,15.583732,284.858704,14.540000,4.288000,359.799988,14.639771,1524811700000
Fix,gps,48.382091,15.583710,284.334595,14.550000,4.288000,357.799988,9.861176,1524811701000
Fix,gps,48.382210,15.583687,283.133728,14.530000,4.288000,355.600006,26.168121,1524811702000
Fix,gps,48.382352,15.583661,284.051941,14.580000,5.360000,351.299988,15.747894,1524811703000
Fix,gps,48.382496,15.583606,282.343750,14.640000,4.288000,347.700012,22.413025,1524811704000
Fix,gps,48.382630,15.583546,281.919556,14.540000,4.288000,342.200012,31.273041,1524811705000
Fix,gps,48.382739,15.583480,281.783325,14.820000,5.360000,336.700012,22.829742,1524811706000
Fix,gps,48.382864,15.583386,284.504761,15.070000,5.360000,331.000000,12.028290,1524811707000
Fix,gps,48.382972,15.583275,283.846313,14.820000,5.360000,324.600006,3.169342,1524811708000
Fix,gps,48.383074,15.583151,282.488037,14.890000,5.360000,321.399994,352.867065,1524811709000
Fix,gps,48.383199,15.583040,281.122437,14.720000,4.288000,320.500000,353.126251,1524811710000
Fix,gps,48.383302,15.582920,280.508545,13.950000,4.288000,319.700012,353.817291,1524811711000
Fix,gps,48.383396,15.582799,279.934387,13.280000,4.288000,318.899994,347.038452,1524811712000
Fix,gps,48.383478,15.582684,279.770630,12.310000,5.360000,319.399994,351.549042,1524811713000
Fix,gps,48.383542,15.582574,279.415771,10.870000,5.360000,318.100006,343.938416,1524811714000
Fix,gps,48.383607,15.582497,279.258667,9.820000,5.360000,318.200012,358.005981,1524811715000
Fix,gps,48.383639,15.582419,278.297241,7.830000,5.360000,313.700012,357.589447,1524811716000
Fix,gps,48.383672,15.582345,277.492249,6.090000,5.360000,310.100006,348.951263,1524811717000
Fix,gps,48.383712,15.582272,278.922852,5.430000,5.360000,314.600006,349.020935,1524811718000
Fix,gps,48.383737,15.582242,279.008789,3.720000,5.360000,316.600006,343.571259,1524811719000
Fix,gps,48.383765,15.582230,278.974182,2.350000,6.432000,323.299988,353.376373,1524811720000
Fix,gps,48.383772,15.582228,278.680176,1.530000,6.432000,324.399994,343.305267,1524811721000
Fix,gps,48.383776,15.582210,278.519897,1.990000,7.504000,328.600006,323.158722,1524811722000
Fix,gps,48.383820,15.582182,278.301392,3.900000,7.504000,334.000000,330.765900,1524811723000
Fix,gps,48.383869,15.582160,278.413879,5.360000,7.504000,341.399994,10.268280,1524811724000
Fix,gps,48.383934,15.582153,278.842407,6.700000,6.432000,346.500000,6.720581,1524811725000
Fix,gps,48.383998,15.582139,277.104370,8.010000,5.360000,350.000000,8.276978,1524811726000
Fix,gps,48.384065,15.582126,277.333618,8.920000,4.288000,350.100006,6.146454,1524811727000
Fix,gps,48.384155,15.582106,275.900879,9.720000,4.288000,351.399994,2.061279,1524811728000
Fix,gps,48.384249,15.582083,275.987549,10.450000,4.288000,351.799988,19.267761,1524811729000
Fix,gps,48.384343,15.582072,274.985718,10.650000,5.360000,352.000000,27.212769,1524811730000
Fix,gps,48.384435,15.582030,275.199097,11.720000,4.288000,349.200012,36.188904,1524811731000
Fix,gps,48.384544,15.582007,276.283630,12.200000,4.288000,346.799988,3.118835,1524811732000
Fix,gps,48.384657,15.581981,275.319275,12.330000,5.360000,349.399994,10.279633,1524811733000
Fix,gps,48.384781,15.581937,271.790039,12.590000,5.360000,349.600006,358.982422,1524811734000
Fix,gps,48.384895,15.581909,272.997437,12.700000,5.360000,352.899994,347.316925,1524811735000
Fix,gps,48.385024,15.581896,272.050049,12.640000,4.288000,357.500000,8.992523,1524811736000
Fix,gps,48.385133,15.581903,270.460388,12.810000,4.288000,0.500000,9.557983,1524811737000
Fix,gps,48.385246,15.581903,270.458679,12.820000,4.288000,3.000000,9.940552,1524811738000
Fix,gps,48.385364,15.581921,269.144104,12.930000,4.288000,3.600000,6.827087,1524811739000
Fix,gps,48.385467,15.581918,266.835693,12.920000,4.288000,6.700000,9.182129,1524811740000
Fix,gps,48.385584,15.581933,266.824219,12.870000,3.216000,7.700000,13.632599,1524811741000
Fix,gps,48.385704,15.581951,264.702576,12.820000,4.288000,8.600000,14.079376,1524811742000
Fix,gps,48.385819,15.581977,263.424866,12.530000,3.216000,8.800000,15.275940,1524811743000
Fix,gps,48.385907,15.581998,261.951050,12.080000,3.216000,8.400000,14.735352,1524811744000
Fix,gps,48.386003,15.582009,260.771484,11.860000,3.216000,9.700000,8.461090,1524811745000
Fix,gps,48.386104,15.582034,260.313965,11.580000,3.216000,11.600000,15.435547,1524811746000
Fix,gps,48.386188,15.582081,257.610596,11.370000,3.216000,12.900000,27.542969,1524811747000
Fix,gps,48.386296,15.582122,255.562805,11.140000,4.288000,9.900000,25.602631,1524811748000
Fix,gps,48.386360,15.582127,253.761597,10.300000,4.288000,6.700000,17.571808,1524811749000
Fix,gps,48.386446,15.582133,254.666748,9.240000,4.288000,4.200000,8.070862,1524811750000
Fix,gps,48.386535,15.582138,257.404053,8.290000,5.360000,2.600000,336.295227,1524811751000
Fix,gps,48.386577,15.582141,256.365845,6.010000,5.360000,2.600000,8.125122,1524811752000
Fix,gps,48.386628,15.582138,256.537964,4.860000,5.360000,1.200000,22.772461,1524811753000
Fix,gps,48.386650,15.582123,254.451965,2.890000,4.288000,356.899994,31.339874,1524811754000
Fix,gps,48.386663,15.582131,252.775024,1.200000,5.360000,357.299988,14.371429,1524811755000
Fix,gps,48.386680,15.582126,252.542725,0.000000,5.360000,0.000000,14.187683,1524811756000
Fix,gps,48.386684,15.582122,253.239502,0.000000,5.360000,0.000000,41.190002,1524811757000
Fix,gps,48.386683,15.582129,253.424072,0.000000,5.360000,0.000000,151.774658,1524811758000
Fix,gps,48.386684,15.582137,253.722534,0.000000,5.360000,0.000000,53.042511,1524811759000
