# 
# Header Description:
# 
# Version: v2.0.0.1 Platform: 8.1.0 Manufacturer: Google Model: Pixel 2
# 
# Raw,ElapsedRealtimeMillis,TimeNanos,LeapSecond,TimeUncertaintyNanos,FullBiasNanos,BiasNanos,BiasUncertaintyNanos,DriftNanosPerSecond,DriftUncertaintyNanosPerSecond,HardwareClockDiscontinuityCount,Svid,TimeOffsetNanos,State,ReceivedSvTimeNanos,ReceivedSvTimeUncertaintyNanos,Cn0DbHz,PseudorangeRateMetersPerSecond,PseudorangeRateUncertaintyMetersPerSecond,AccumulatedDeltaRangeState,AccumulatedDeltaRangeMeters,AccumulatedDeltaRangeUncertaintyMeters,CarrierFrequencyHz,CarrierCycles,CarrierPhase,CarrierPhaseUncertainty,MultipathIndicator,SnrInDb,ConstellationType,AgcDb,CarrierFrequencyHz
# 
# Fix,Provider,Latitude,Longitude,Altitude,Speed,Accuracy,Bearing,Orientation,(UTC)TimeInMs
# 
# Nav,Svid,Type,Status,MessageId,Sub-messageId,Data(Bytes)
# 
Fix,gps,48.397784,15.568419,182.683167,1.570000,30.016001,62.500000,303.041718,1524821321526
Fix,gps,48.397433,15.568569,229.445923,1.100000,18.224001,49.500000,334.381042,1524821322526
Fix,gps,48.397290,15.568560,252.180664,0.560000,10.720000,49.500000,347.393127,1524821323526
Fix,gps,48.397265,15.568671,245.082642,0.200000,15.008000,49.500000,135.052551,1524821324526
Fix,gps,48.397263,15.568572,252.547852,0.370000,12.864000,49.500000,9.798218,1524821325526
Fix,gps,48.397165,15.568597,265.903564,0.000000,12.864000,0.000000,7.568756,1524821326526
Fix,gps,48.397253,15.568561,245.024902,0.000000,11.792000,0.000000,131.789032,1524821327526
Fix,gps,48.397249,15.568594,263.424072,0.190000,10.720000,49.500000,7.676453,1524821328526
Fix,gps,48.397183,15.568595,261.760193,0.000000,10.720000,0.000000,27.235077,1524821329526
Fix,gps,48.397232,15.568578,251.697449,0.300000,8.576000,49.500000,7.026642,1524821330515
Fix,gps,48.397294,15.568641,250.902832,0.330000,8.576000,49.500000,30.113647,1524821331000
Fix,gps,48.397268,15.568635,236.480530,0.000000,5.360000,0.000000,26.635742,1524821333000
Fix,gps,48.397272,15.568635,231.363281,0.000000,5.360000,0.000000,26.372284,1524821334000
Fix,gps,48.397274,15.568648,233.198792,0.000000,5.360000,0.000000,37.852753,1524821335000
Fix,gps,48.397266,15.568633,233.454773,0.000000,5.360000,0.000000,16.016693,1524821336000
Fix,gps,48.397261,15.568626,234.644165,0.000000,4.288000,0.000000,14.192474,1524821337000
Fix,gps,48.397269,15.568614,235.301758,0.000000,4.288000,0.000000,34.845642,1524821338000
Fix,gps,48.397269,15.568608,235.978760,0.000000,4.288000,0.000000,33.336639,1524821339000
Fix,gps,48.397268,15.568602,236.332336,0.000000,4.288000,0.000000,179.197571,1524821340000
Fix,gps,48.397268,15.568609,236.162476,0.000000,4.288000,0.000000,70.633636,1524821341000
Fix,gps,48.397264,15.568606,236.500000,0.000000,3.216000,0.000000,85.970551,1524821342000
Fix,gps,48.397267,15.568602,237.122314,0.000000,3.216000,0.000000,65.788025,1524821343000
Fix,gps,48.397268,15.568600,236.969666,0.000000,3.216000,0.000000,100.304291,1524821344000
Fix,gps,48.397268,15.568598,236.549316,0.000000,3.216000,0.000000,15.085388,1524821345000
Fix,gps,48.397268,15.568598,236.543457,0.000000,3.216000,0.000000,22.203857,1524821346000
Fix,gps,48.397268,15.568598,236.572754,0.000000,3.216000,0.000000,114.899323,1524821347000
Fix,gps,48.397256,15.568587,237.204773,1.480000,4.288000,204.100006,139.507019,1524821348000
Fix,gps,48.397228,15.568603,238.104858,1.910000,3.216000,188.100006,145.201996,1524821349000
Fix,gps,48.397208,15.568611,238.655884,1.910000,3.216000,188.000000,116.404877,1524821350000
Fix,gps,48.397186,15.568618,239.139771,1.690000,3.216000,188.000000,121.249603,1524821351000
Fix,gps,48.397176,15.568621,240.720215,1.330000,3.216000,188.000000,112.946747,1524821352000
Fix,gps,48.397161,15.568627,240.186584,1.280000,3.216000,188.000000,87.562103,1524821353000
Fix,gps,48.397135,15.568617,240.436279,2.880000,3.216000,191.399994,122.565582,1524821354000
Fix,gps,48.397109,15.568583,241.140564,3.520000,3.216000,212.899994,174.336365,1524821355000
Fix,gps,48.397077,15.568533,242.278992,5.170000,3.216000,228.300003,275.039429,1524821356000
Fix,gps,48.397044,15.568447,241.894897,7.780000,3.216000,235.500000,329.949768,1524821357000
Fix,gps,48.397004,15.568358,240.937622,9.760000,3.216000,233.500000,204.284821,1524821358000
Fix,gps,48.396950,15.568238,241.291443,12.710000,3.216000,232.699997,29.901459,1524821359000
Fix,gps,48.396881,15.568086,241.731445,14.990000,3.216000,232.199997,308.196991,1524821360000
Fix,gps,48.396796,15.567899,244.438477,17.440001,3.216000,233.800003,282.715637,1524821361000
Fix,gps,48.396698,15.567679,245.679993,19.570000,3.216000,234.399994,288.853668,1524821362000
Fix,gps,48.396586,15.567431,245.937134,21.309999,3.216000,235.100006,262.407806,1524821363000
Fix,gps,48.396459,15.567204,243.852783,21.770000,3.216000,234.899994,238.336456,1524821364000
Fix,gps,48.396353,15.566967,243.472534,21.540001,3.216000,234.899994,294.021057,1524821365000
Fix,gps,48.396243,15.566735,242.746643,21.740000,4.288000,235.100006,275.689941,1524821366000
Fix,gps,48.396128,15.566484,242.606079,22.170000,3.216000,234.800003,245.085175,1524821367000
Fix,gps,48.396008,15.566236,243.353394,22.389999,4.288000,234.699997,309.681793,1524821368000
Fix,gps,48.395890,15.565973,244.618103,23.280001,4.288000,235.500000,342.547882,1524821369000
Fix,gps,48.395758,15.565709,244.271240,24.350000,3.216000,235.199997,288.690125,1524821370000
Fix,gps,48.395632,15.565425,245.579773,25.309999,3.216000,235.899994,277.284271,1524821371000
Fix,gps,48.395500,15.565135,245.314026,26.360001,4.288000,236.600006,321.606842,1524821372000
Fix,gps,48.395373,15.564835,245.977661,26.500000,4.288000,237.800003,257.607635,1524821373000
Fix,gps,48.395239,15.564523,244.898926,27.059999,5.360000,237.800003,282.808197,1524821374000
Fix,gps,48.395116,15.564202,244.239380,27.549999,5.360000,238.800003,274.780304,1524821375000
Fix,gps,48.394973,15.563874,245.215515,28.430000,6.432000,237.800003,307.929871,1524821376000
Fix,gps,48.394857,15.563539,245.306641,28.180000,5.360000,239.899994,298.179596,1524821377000
Fix,gps,48.394715,15.563207,244.861572,28.389999,6.432000,240.000000,276.364197,1524821378000
Fix,gps,48.394590,15.562878,245.052429,27.820000,6.432000,239.500000,289.888397,1524821379000
Fix,gps,48.394464,15.562539,245.208313,27.870001,8.576000,240.000000,277.884796,1524821380000
Fix,gps,48.394364,15.562181,246.040405,28.120001,9.648001,242.500000,198.662323,1524821381000
Fix,gps,48.394247,15.561845,246.896118,28.250000,7.504000,241.800003,198.154694,1524821382000
Fix,gps,48.394133,15.561544,247.285950,27.730000,7.504000,239.899994,293.880920,1524821383000
Fix,gps,48.394002,15.561185,247.718140,28.219999,7.504000,239.300003,14.598633,1524821384000
Fix,gps,48.393881,15.560882,247.891663,27.920000,6.432000,239.100006,299.679535,1524821385000
Fix,gps,48.393756,15.560550,248.201050,28.139999,6.432000,240.100006,285.506439,1524821386000
Fix,gps,48.393638,15.560231,249.377747,27.930000,6.432000,241.000000,277.211090,1524821387000
Fix,gps,48.393516,15.559880,249.880005,28.070000,5.360000,241.500000,252.774124,1524821388000
Fix,gps,48.393402,15.559547,250.810974,27.850000,5.360000,242.000000,280.558044,1524821389000
Fix,gps,48.393307,15.559185,251.408691,27.520000,4.288000,244.199997,276.804657,1524821390000
Fix,gps,48.393194,15.558860,250.863342,27.600000,4.288000,244.899994,282.845154,1524821391000
Fix,gps,48.393096,15.558509,252.103882,27.790001,4.288000,246.100006,257.397400,1524821392000
Fix,gps,48.392997,15.558167,252.631836,27.870001,4.288000,246.699997,272.940521,1524821393000
Fix,gps,48.392902,15.557807,250.346558,28.330000,4.288000,246.199997,243.635162,1524821394000
Fix,gps,48.392784,15.557466,251.289063,28.459999,3.216000,244.300003,248.870743,1524821395000
Fix,gps,48.392663,15.557115,251.270996,28.900000,4.288000,242.899994,63.460052,1524821396000
Fix,gps,48.392533,15.556742,250.127136,29.160000,3.216000,242.100006,338.253632,1524821397000
Fix,gps,48.392408,15.556396,250.916138,29.219999,3.216000,241.399994,14.267670,1524821398000
Fix,gps,48.392274,15.556038,249.621582,29.480000,4.288000,240.100006,84.219818,1524821399000
Fix,gps,48.392135,15.555698,249.542236,29.629999,4.288000,238.800003,240.250809,1524821400000
Fix,gps,48.392000,15.555448,246.892578,29.690001,4.288000,237.300003,299.538574,1524821401000
Fix,gps,48.391855,15.555052,246.197815,29.879999,3.216000,236.300003,210.902756,1524821402000
Fix,gps,48.391706,15.554696,245.831299,29.680000,4.288000,236.399994,267.050140,1524821403000
Fix,gps,48.391562,15.554380,247.820801,29.209999,5.360000,235.800003,236.005707,1524821404000
Fix,gps,48.391414,15.554061,247.915955,29.290001,4.288000,235.600006,220.222641,1524821405000
Fix,gps,48.391259,15.553753,245.244507,29.370001,4.288000,235.500000,261.964447,1524821406000
Fix,gps,48.391111,15.553415,246.049316,29.610001,5.360000,235.699997,236.397415,1524821407000
Fix,gps,48.390957,15.553076,246.291809,29.780001,4.288000,235.399994,318.437225,1524821408000
Fix,gps,48.390803,15.552732,247.151367,29.870001,4.288000,235.600006,259.620117,1524821409000
Fix,gps,48.390650,15.552393,247.785156,29.940001,4.288000,235.600006,198.114441,1524821410000
Fix,gps,48.390501,15.552046,247.795166,30.070000,4.288000,235.500000,251.322891,1524821411000
Fix,gps,48.390359,15.551723,245.517761,30.090000,4.288000,235.500000,223.024658,1524821412000
Fix,gps,48.390200,15.551376,244.803711,30.000000,4.288000,235.500000,266.663422,1524821413000
Fix,gps,48.390052,15.551046,244.500244,29.559999,4.288000,235.199997,239.180389,1524821414000
Fix,gps,48.389905,15.550725,243.650879,29.059999,9.648001,234.899994,199.233582,1524821415000
Fix,gps,48.389759,15.550406,243.484192,28.590000,4.288000,234.500000,151.016907,1524821416000
Fix,gps,48.389611,15.550084,243.138611,28.110001,3.216000,234.000000,152.022095,1524821417000
Fix,gps,48.389476,15.549787,243.493896,27.629999,3.216000,233.199997,180.611023,1524821418000
Fix,gps,48.389331,15.549505,243.499329,27.290001,3.216000,232.699997,260.421265,1524821419000
Fix,gps,48.389186,15.549225,243.783569,26.680000,3.216000,232.600006,157.647278,1524821420000
Fix,gps,48.389042,15.548938,243.975830,26.219999,3.216000,232.000000,167.971741,1524821421000
Fix,gps,48.388902,15.548662,243.474243,25.580000,3.216000,231.899994,205.167831,1524821422000
Fix,gps,48.388762,15.548388,243.114502,25.070000,3.216000,231.600006,92.929596,1524821423000
Fix,gps,48.388626,15.548132,242.783081,24.480000,3.216000,231.699997,243.244598,1524821424000
Fix,gps,48.388494,15.547876,243.278503,23.860001,3.216000,232.399994,228.586044,1524821425000
Fix,gps,48.388364,15.547629,242.699524,23.280001,3.216000,232.899994,274.143799,1524821426000
Fix,gps,48.388246,15.547402,242.129272,22.330000,3.216000,233.600006,208.465988,1524821427000
Fix,gps,48.388133,15.547170,241.997192,21.650000,3.216000,234.199997,240.607452,1524821428000
Fix,gps,48.388034,15.546953,243.647705,20.740000,3.216000,235.100006,210.575882,1524821429000
Fix,gps,48.387930,15.546727,244.003235,20.059999,4.288000,235.800003,304.571991,1524821430000
Fix,gps,48.387835,15.546510,244.200317,19.420000,4.288000,236.800003,255.902649,1524821431000
Fix,gps,48.387742,15.546293,244.175781,19.080000,4.288000,238.899994,266.436554,1524821432000
Fix,gps,48.387659,15.546079,244.390320,18.520000,4.288000,239.899994,281.652252,1524821433000
Fix,gps,48.387576,15.545865,243.436646,18.110001,4.288000,240.600006,269.205994,1524821434000
Fix,gps,48.387504,15.545666,243.910522,17.010000,4.288000,241.699997,13.930328,1524821435000
Fix,gps,48.387435,15.545460,244.197021,16.540001,4.288000,242.100006,287.201019,1524821436000
Fix,gps,48.387364,15.545265,243.832642,15.760000,4.288000,242.699997,298.270477,1524821437000
Fix,gps,48.387307,15.545080,242.954163,15.350000,4.288000,243.899994,291.588745,1524821438000
Fix,gps,48.387255,15.544913,242.229248,15.060000,4.288000,244.199997,297.019714,1524821439000
Fix,gps,48.387193,15.544728,241.410034,15.680000,4.288000,243.600006,304.342194,1524821440000
Fix,gps,48.387127,15.544522,240.983337,16.230000,5.360000,244.100006,253.179352,1524821441000
Fix,gps,48.387051,15.544316,240.995911,16.780001,5.360000,243.500000,300.555695,1524821442000
Fix,gps,48.386983,15.544081,240.813110,17.750000,5.360000,245.699997,262.507874,1524821443000
Fix,gps,48.386911,15.543860,240.439331,17.980000,5.360000,245.800003,236.871887,1524821444000
Fix,gps,48.386842,15.543635,240.288879,17.770000,4.288000,246.699997,248.460205,1524821445000
Fix,gps,48.386781,15.543421,240.609375,16.920000,5.360000,247.600006,264.721252,1524821446000
Fix,gps,48.386714,15.543231,241.297852,16.070000,4.288000,248.399994,315.908661,1524821447000
Fix,gps,48.386656,15.543043,241.353271,15.550000,4.288000,248.399994,264.947144,1524821448000
Fix,gps,48.386606,15.542850,241.225952,15.470000,4.288000,248.500000,338.285095,1524821449000
Fix,gps,48.386564,15.542661,240.171631,15.940000,4.288000,249.100006,281.327332,1524821450000
Fix,gps,48.386522,15.542451,238.962463,16.420000,4.288000,249.899994,283.022491,1524821451000
Fix,gps,48.386464,15.542225,239.494507,17.280001,3.216000,250.100006,256.754456,1524821452000
Fix,gps,48.386410,15.541998,239.182251,17.670000,3.216000,250.699997,264.928192,1524821453000
Fix,gps,48.386368,15.541761,238.558044,17.889999,3.216000,251.199997,281.186157,1524821454000
Fix,gps,48.386312,15.541550,238.274719,17.750000,3.216000,251.800003,278.681549,1524821455000
Fix,gps,48.386266,15.541346,237.038879,17.530001,3.216000,252.000000,278.962769,1524821456000
Fix,gps,48.386218,15.541126,238.034851,17.320000,3.216000,252.600006,293.101013,1524821457000
Fix,gps,48.386170,15.540899,238.162354,17.219999,3.216000,253.199997,292.282257,1524821458000
Fix,gps,48.386134,15.540662,238.384216,17.250000,3.216000,253.899994,285.437683,1524821459000
Fix,gps,48.386090,15.540428,238.127808,17.379999,3.216000,253.899994,340.861847,1524821460000
Fix,gps,48.386041,15.540166,237.445313,17.920000,4.288000,254.100006,312.808899,1524821461000
Fix,gps,48.385998,15.539925,237.775330,18.049999,3.216000,254.699997,268.614197,1524821462000
Fix,gps,48.385963,15.539676,238.068848,18.190001,3.216000,255.399994,289.066406,1524821463000
Fix,gps,48.385921,15.539445,236.558044,18.200001,4.288000,256.299988,287.139679,1524821464000
Fix,gps,48.385880,15.539214,236.722107,18.230000,3.216000,256.899994,341.074768,1524821465000
Fix,gps,48.385845,15.538977,236.281128,18.230000,3.216000,256.899994,317.200653,1524821466000
Fix,gps,48.385810,15.538724,237.076538,18.480000,3.216000,257.299988,302.882477,1524821467000
Fix,gps,48.385772,15.538473,237.863525,18.750000,3.216000,257.200012,312.025330,1524821468000
Fix,gps,48.385717,15.538230,237.224487,19.100000,3.216000,257.700012,291.947815,1524821469000
Fix,gps,48.385676,15.537973,238.627441,19.190001,3.216000,257.299988,274.882874,1524821470000
Fix,gps,48.385640,15.537728,239.665894,19.059999,3.216000,258.000000,303.298950,1524821471000
Fix,gps,48.385607,15.537475,240.304810,19.090000,3.216000,258.399994,302.814209,1524821472000
Fix,gps,48.385571,15.537229,241.093506,19.139999,3.216000,258.200012,302.077484,1524821473000
Fix,gps,48.385531,15.536969,241.160278,19.270000,3.216000,258.399994,315.777344,1524821474000
Fix,gps,48.385500,15.536722,240.987122,19.139999,4.288000,259.600006,290.037415,1524821475000
Fix,gps,48.385484,15.536461,242.332642,19.190001,3.216000,260.399994,307.340637,1524821476000
Fix,gps,48.385464,15.536201,242.468872,19.170000,4.288000,261.600006,321.474457,1524821477000
Fix,gps,48.385446,15.535945,241.361267,19.100000,4.288000,262.700012,291.085419,1524821478000
Fix,gps,48.385437,15.535696,240.661804,18.740000,4.288000,265.000000,309.735962,1524821479000
Fix,gps,48.385422,15.535445,240.106506,18.610001,4.288000,266.299988,286.269745,1524821480000
Fix,gps,48.385420,15.535197,239.473389,18.459999,4.288000,269.100006,326.525208,1524821481000
Fix,gps,48.385420,15.534948,238.650757,18.549999,4.288000,271.600006,312.012726,1524821482000
Fix,gps,48.385435,15.534698,239.130127,18.620001,4.288000,274.799988,321.211395,1524821483000
Fix,gps,48.385457,15.534442,238.897583,18.590000,4.288000,277.600006,297.654541,1524821484000
Fix,gps,48.385488,15.534192,238.790222,18.510000,4.288000,279.899994,305.790070,1524821485000
Fix,gps,48.385532,15.533957,239.305420,18.020000,4.288000,285.500000,338.016663,1524821486000
Fix,gps,48.385570,15.533720,239.559814,17.809999,4.288000,285.200012,317.501038,1524821487000
Fix,gps,48.385637,15.533504,239.755798,17.290001,4.288000,292.100006,312.092560,1524821488000
Fix,gps,48.385697,15.533289,240.055603,16.910000,3.216000,295.100006,324.677612,1524821489000
Fix,gps,48.385764,15.533086,240.623901,16.500000,3.216000,299.100006,312.173126,1524821490000
Fix,gps,48.385838,15.532898,241.187744,16.440001,3.216000,301.500000,310.693604,1524821491000
Fix,gps,48.385916,15.532704,240.999023,16.670000,3.216000,302.600006,344.472229,1524821492000
Fix,gps,48.386011,15.532518,240.290039,17.209999,3.216000,304.200012,347.628052,1524821493000
Fix,gps,48.386099,15.532327,240.791016,17.600000,3.216000,304.500000,326.309235,1524821494000
Fix,gps,48.386201,15.532124,239.671021,18.040001,3.216000,304.399994,4.214020,1524821495000
Fix,gps,48.386287,15.531929,239.230652,18.280001,3.216000,301.700012,13.868805,1524821496000
Fix,gps,48.386369,15.531707,239.241882,18.719999,3.216000,298.399994,15.343811,1524821497000
Fix,gps,48.386443,15.531476,239.092102,19.100000,3.216000,294.799988,6.460999,1524821498000
Fix,gps,48.386505,15.531229,239.202454,19.450001,3.216000,291.000000,357.825317,1524821499000
Fix,gps,48.386569,15.530978,239.149963,20.020000,3.216000,288.899994,337.803772,1524821500000
Fix,gps,48.386626,15.530715,238.487915,20.490000,3.216000,288.399994,325.925446,1524821501000
Fix,gps,48.386677,15.530446,238.311401,20.690001,3.216000,287.600006,312.424011,1524821502000
Fix,gps,48.386751,15.530174,238.739990,21.370001,3.216000,290.100006,302.413361,1524821503000
Fix,gps,48.386831,15.529897,239.425354,21.709999,3.216000,293.000000,305.070679,1524821504000
Fix,gps,48.386909,15.529624,240.615112,21.980000,3.216000,294.700012,319.814270,1524821505000
Fix,gps,48.386985,15.529353,240.331909,22.139999,3.216000,295.299988,4.456940,1524821506000
Fix,gps,48.387074,15.529081,239.853577,22.340000,3.216000,296.799988,319.382538,1524821507000
Fix,gps,48.387172,15.528810,239.309082,22.400000,3.216000,298.000000,327.826508,1524821508000
Fix,gps,48.387266,15.528539,239.644836,22.420000,3.216000,299.500000,331.785675,1524821509000
Fix,gps,48.387367,15.528273,239.050232,22.400000,3.216000,300.299988,340.453217,1524821510000
Fix,gps,48.387470,15.528014,238.907898,22.330000,3.216000,301.500000,318.777710,1524821511000
Fix,gps,48.387576,15.527758,239.527222,22.360001,3.216000,302.700012,340.194946,1524821512000
Fix,gps,48.387685,15.527509,239.801880,22.400000,3.216000,303.700012,353.630341,1524821513000
Fix,gps,48.387790,15.527260,238.336975,22.410000,3.216000,304.500000,340.235718,1524821514000
Fix,gps,48.387912,15.527010,238.752625,22.549999,3.216000,305.799988,327.091766,1524821515000
Fix,gps,48.388040,15.526767,238.546326,22.540001,3.216000,306.799988,336.705322,1524821516000
Fix,gps,48.388163,15.526520,239.309021,22.620001,3.216000,308.000000,324.438202,1524821517000
Fix,gps,48.388295,15.526280,239.605957,22.750000,3.216000,309.200012,329.898895,1524821518000
Fix,gps,48.388428,15.526045,241.837280,22.750000,3.216000,309.899994,351.431183,1524821519000
Fix,gps,48.388556,15.525811,242.382874,22.610001,3.216000,310.299988,343.624603,1524821520000
Fix,gps,48.388691,15.525576,242.612366,22.660000,3.216000,310.399994,337.366516,1524821521000
Fix,gps,48.388829,15.525336,243.033875,22.680000,3.216000,309.299988,359.530640,1524821522000
Fix,gps,48.388949,15.525091,243.044861,22.549999,3.216000,306.899994,359.065247,1524821523000
Fix,gps,48.389062,15.524851,243.352783,22.420000,3.216000,303.600006,5.927246,1524821524000
Fix,gps,48.389159,15.524594,244.563599,22.000000,3.216000,299.799988,350.452820,1524821525000
Fix,gps,48.389250,15.524334,244.733398,21.639999,3.216000,297.600006,322.567596,1524821526000
Fix,gps,48.389342,15.524079,244.798340,21.290001,3.216000,297.600006,314.920288,1524821527000
Fix,gps,48.389433,15.523832,244.335693,21.129999,3.216000,298.200012,274.823303,1524821528000
Fix,gps,48.389546,15.523594,244.380981,20.840000,3.216000,302.299988,292.533539,1524821529000
Fix,gps,48.389667,15.523368,244.414185,20.650000,3.216000,307.600006,287.865387,1524821530000
Fix,gps,48.389786,15.523161,244.241211,20.299999,3.216000,312.600006,297.958466,1524821531000
Fix,gps,48.389914,15.522973,243.818237,19.990000,3.216000,315.600006,332.489380,1524821532000
Fix,gps,48.390050,15.522793,243.992310,19.920000,3.216000,317.000000,301.627472,1524821533000
Fix,gps,48.390253,15.522719,245.229126,20.420000,3.216000,333.399994,333.892426,1524821534000
Fix,gps,48.390429,15.522623,245.943481,20.770000,3.216000,339.899994,317.326996,1524821535000
Fix,gps,48.390597,15.522544,245.151489,20.309999,3.216000,342.799988,315.698700,1524821536000
Fix,gps,48.390773,15.522483,245.481018,20.520000,4.288000,345.700012,321.206665,1524821537000
Fix,gps,48.390954,15.522465,246.162109,20.170000,5.360000,350.600006,345.130310,1524821538000
Fix,gps,48.391162,15.522554,245.471436,20.430000,4.288000,6.600000,314.509155,1524821539000
Fix,gps,48.391338,15.522624,244.957947,20.180000,4.288000,15.800000,335.523529,1524821540000
Fix,gps,48.391517,15.522708,245.465393,19.840000,4.288000,20.900000,345.972992,1524821541000
Fix,gps,48.391680,15.522808,245.732727,19.379999,4.288000,25.799999,5.166199,1524821542000
Fix,gps,48.391831,15.522928,245.962646,18.750000,4.288000,27.900000,21.229431,1524821543000
Fix,gps,48.391960,15.523045,244.835144,18.139999,4.288000,28.500000,34.987396,1524821544000
Fix,gps,48.392092,15.523155,244.493408,17.629999,4.288000,27.600000,23.914642,1524821545000
Fix,gps,48.392241,15.523264,243.153564,16.879999,4.288000,24.799999,56.884766,1524821546000
Fix,gps,48.392370,15.523357,242.212830,16.690001,4.288000,24.400000,47.148407,1524821547000
Fix,gps,48.392485,15.523425,240.012573,15.770000,4.288000,16.200001,45.814117,1524821548000
Fix,gps,48.392625,15.523477,240.395630,15.290000,4.288000,12.400000,25.642212,1524821549000
Fix,gps,48.392754,15.523516,240.399292,15.050000,4.288000,10.100000,36.001923,1524821550000
Fix,gps,48.392883,15.523534,241.225159,14.460000,4.288000,5.000000,14.358459,1524821551000
Fix,gps,48.393021,15.523545,244.480286,14.120000,3.216000,1.100000,14.202484,1524821552000
Fix,gps,48.393152,15.523544,243.937500,13.680000,3.216000,357.200012,57.338928,1524821553000
Fix,gps,48.393277,15.523521,244.338501,13.370000,3.216000,353.299988,16.529358,1524821554000
Fix,gps,48.393393,15.523477,243.721863,13.320000,3.216000,347.799988,4.163361,1524821555000
Fix,gps,48.393507,15.523436,242.954407,13.700000,3.216000,344.799988,21.180481,1524821556000
Fix,gps,48.393628,15.523375,242.889832,14.240000,3.216000,340.700012,36.255768,1524821557000
Fix,gps,48.393751,15.523289,243.413025,14.630000,3.216000,335.899994,41.318329,1524821558000
Fix,gps,48.393875,15.523194,243.598694,15.440000,3.216000,331.200012,11.628052,1524821559000
Fix,gps,48.393996,15.523073,244.093811,16.000000,3.216000,327.899994,28.773102,1524821560000
Fix,gps,48.394118,15.522958,244.013855,16.000000,3.216000,327.899994,344.268890,1524821561000
Fix,gps,48.397664,15.518620,242.502441,19.030001,8.576000,336.299988,324.356262,1524821587000
Fix,gps,48.397853,15.518570,243.857605,19.180000,5.360000,340.500000,356.454041,1524821588000
Fix,gps,48.398018,15.518519,242.679199,19.559999,4.288000,343.600006,340.930176,1524821589000
Fix,gps,48.398189,15.518443,243.875977,19.889999,4.288000,345.399994,22.785553,1524821590000
Fix,gps,48.398364,15.518376,244.680481,20.270000,3.216000,346.200012,49.827881,1524821591000
Fix,gps,48.398548,15.518311,246.267944,20.690001,3.216000,347.000000,7.616150,1524821592000
Fix,gps,48.398737,15.518248,245.755005,21.059999,3.216000,347.600006,31.790527,1524821593000
Fix,gps,48.398917,15.518187,245.523254,21.280001,3.216000,347.700012,17.992401,1524821594000
Fix,gps,48.399105,15.518129,245.670654,21.340000,3.216000,347.200012,13.255371,1524821595000
Fix,gps,48.399290,15.518060,246.936035,21.440001,3.216000,346.700012,10.685150,1524821596000
Fix,gps,48.399480,15.517987,246.474121,21.559999,3.216000,345.899994,5.900269,1524821597000
Fix,gps,48.399674,15.517919,248.282837,21.940001,3.216000,344.899994,6.845428,1524821598000
Fix,gps,48.399861,15.517832,248.268982,22.450001,3.216000,344.299988,345.792023,1524821599000
Fix,gps,48.400057,15.517752,249.152832,22.889999,3.216000,343.899994,43.190826,1524821600000
Fix,gps,48.400261,15.517663,248.754944,23.620001,3.216000,342.799988,1.377014,1524821601000
Fix,gps,48.400465,15.517563,249.580139,24.250000,3.216000,341.899994,357.836334,1524821602000
Fix,gps,48.400680,15.517460,248.643677,24.980000,3.216000,341.299988,350.809296,1524821603000
Fix,gps,48.400897,15.517338,248.267029,25.459999,3.216000,340.700012,1.912872,1524821604000
Fix,gps,48.401111,15.517215,248.312744,25.809999,3.216000,340.200012,358.834351,1524821605000
Fix,gps,48.401330,15.517090,248.208496,25.920000,4.288000,339.500000,353.367889,1524821606000
Fix,gps,48.401551,15.516958,249.139526,25.980000,4.288000,339.100006,16.924164,1524821607000
Fix,gps,48.401773,15.516827,248.938843,25.870001,4.288000,338.200012,18.311462,1524821608000
Fix,gps,48.401989,15.516690,251.242859,25.930000,4.288000,337.500000,23.487671,1524821609000
Fix,gps,48.402212,15.516536,252.015747,25.930000,4.288000,335.700012,6.247223,1524821610000
Fix,gps,48.402427,15.516376,252.831116,26.389999,4.288000,334.000000,38.494080,1524821611000
Fix,gps,48.402640,15.516219,252.978455,26.389999,6.432000,334.000000,357.010559,1524821612000
Fix,gps,48.402837,15.516011,252.051147,26.459999,5.360000,329.299988,13.796967,1524821613000
Fix,gps,48.403022,15.515815,250.441589,26.030001,5.360000,327.299988,344.711639,1524821614000
Fix,gps,48.403223,15.515622,250.673218,26.420000,4.288000,328.899994,343.221741,1524821615000
Fix,gps,48.403425,15.515446,250.869568,26.469999,4.288000,329.299988,3.096283,1524821616000
Fix,gps,48.403628,15.515261,251.058899,26.610001,4.288000,329.200012,53.971893,1524821617000
Fix,gps,48.403825,15.515053,251.509094,26.719999,4.288000,326.200012,355.439606,1524821618000
Fix,gps,48.404021,15.514837,252.397278,26.770000,4.288000,324.500000,11.768005,1524821619000
Fix,gps,48.404220,15.514639,252.663696,26.660000,4.288000,324.299988,322.947662,1524821620000
Fix,gps,48.404414,15.514439,252.273987,26.480000,3.216000,325.100006,320.852417,1524821621000
Fix,gps,48.404606,15.514244,251.793823,26.000000,3.216000,326.100006,351.009491,1524821622000
Fix,gps,48.404804,15.514058,252.174438,25.590000,3.216000,327.000000,8.389221,1524821623000
Fix,gps,48.404988,15.513872,251.449219,25.030001,3.216000,325.799988,357.945374,1524821624000
Fix,gps,48.405162,15.513680,251.113037,24.180000,3.216000,324.000000,355.490723,1524821625000
Fix,gps,48.405321,15.513482,250.714478,23.120001,3.216000,321.299988,21.712128,1524821626000
Fix,gps,48.405477,15.513294,251.276611,22.020000,3.216000,319.500000,352.063507,1524821627000
Fix,gps,48.405607,15.513113,250.239929,20.020000,3.216000,316.799988,348.474396,1524821628000
Fix,gps,48.405731,15.512944,249.454468,18.370001,3.216000,314.600006,358.995453,1524821629000
Fix,gps,48.405824,15.512781,248.385376,16.150000,3.216000,312.700012,1.914703,1524821630000
Fix,gps,48.405918,15.512635,249.940063,14.360000,3.216000,311.799988,9.365631,1524821631000
Fix,gps,48.405990,15.512510,250.210266,12.050000,3.216000,311.100006,333.525696,1524821632000
Fix,gps,48.406045,15.512420,249.755249,9.010000,3.216000,310.399994,286.196045,1524821633000
Fix,gps,48.406081,15.512395,249.628113,4.340000,3.216000,338.899994,295.228149,1524821634000
Fix,gps,48.406106,15.512416,246.263733,3.930000,3.216000,8.400000,52.862671,1524821635000
Fix,gps,48.406132,15.512446,245.156128,3.780000,3.216000,31.100000,20.671448,1524821636000
Fix,gps,48.406150,15.512467,243.650208,3.170000,4.288000,34.500000,5.927551,1524821637000
Fix,gps,48.406174,15.512491,243.548584,3.170000,5.360000,34.500000,15.510712,1524821638000
Fix,gps,48.406165,15.512493,243.418823,1.430000,4.288000,55.099998,44.789734,1524821639000
Fix,gps,48.406187,15.512515,243.664307,1.630000,4.288000,41.299999,32.904358,1524821640000
Fix,gps,48.406191,15.512516,243.941711,0.000000,4.288000,0.000000,45.511353,1524821641000
Fix,gps,48.406220,15.512520,244.067261,2.360000,4.288000,8.500000,16.530975,1524821642000
Fix,gps,48.406235,15.512499,243.880005,2.680000,5.360000,356.200012,18.774170,1524821643000
Fix,gps,48.406273,15.512486,242.288025,3.680000,4.288000,347.200012,39.952667,1524821644000
Fix,gps,48.406310,15.512461,244.009888,3.870000,5.360000,334.000000,356.923706,1524821645000
Fix,gps,48.406334,15.512428,244.135559,3.270000,5.360000,318.700012,355.890106,1524821646000
Fix,gps,48.406345,15.512410,246.096375,1.940000,4.288000,255.399994,294.302704,1524821647000
Fix,gps,48.406345,15.512397,244.266968,0.520000,4.288000,255.500000,318.393524,1524821648000
Fix,gps,48.406324,15.512406,244.631165,0.000000,4.288000,0.000000,312.002075,1524821649000
Fix,gps,48.406314,15.512408,243.631409,1.160000,4.288000,255.300003,294.966339,1524821650000
Fix,gps,48.406302,15.512414,243.357422,0.000000,4.288000,0.000000,272.653717,1524821651000
Fix,gps,48.406298,15.512419,242.442444,0.000000,4.288000,0.000000,199.811920,1524821652000
Fix,gps,48.406297,15.512421,242.918762,0.000000,4.288000,0.000000,222.140488,1524821653000
Fix,gps,48.406299,15.512418,244.493469,0.000000,4.288000,0.000000,144.651154,1524821654000
Fix,gps,48.406303,15.512417,244.787659,0.000000,4.288000,0.000000,93.099915,1524821655000
Fix,gps,48.406305,15.512416,243.980286,0.000000,4.288000,0.000000,132.265228,1524821656000
Fix,gps,48.406305,15.512414,244.220825,0.000000,4.288000,0.000000,141.353455,1524821657000
Fix,gps,48.406294,15.512417,244.560608,1.520000,4.288000,141.899994,127.560730,1524821658000
Fix,gps,48.406279,15.512430,244.001587,1.230000,4.288000,133.500000,114.009247,1524821659000
Fix,gps,48.406266,15.512441,244.883545,1.500000,4.288000,142.199997,94.523071,1524821660000
Fix,gps,48.406253,15.512458,244.857239,1.530000,4.288000,130.300003,74.698059,1524821661000
Fix,gps,48.406246,15.512475,245.109619,1.110000,4.288000,125.300003,97.671478,1524821662000
Fix,gps,48.406233,15.512488,245.480896,1.900000,4.288000,140.500000,90.863129,1524821663000
Fix,gps,48.406214,15.512492,244.917114,2.320000,4.288000,198.899994,118.858856,1524821664000
Fix,gps,48.406193,15.512482,245.278687,2.700000,5.360000,207.699997,134.986847,1524821665000
Fix,gps,48.406170,15.512463,245.302429,2.700000,6.432000,205.000000,157.189636,1524821666000
Fix,gps,48.406108,15.512385,243.968018,1.630000,8.576000,215.699997,181.885941,1524821669000
Fix,gps,48.406105,15.512386,242.623108,0.190000,6.432000,207.100006,128.577026,1524821670000
Fix,gps,48.406109,15.512388,242.788269,0.000000,5.360000,0.000000,252.908646,1524821671000
Fix,gps,48.406119,15.512399,243.170837,0.000000,5.360000,0.000000,157.294189,1524821672000
Fix,gps,48.406128,15.512406,243.019409,0.000000,4.288000,0.000000,172.094482,1524821673000
Fix,gps,48.406132,15.512414,242.561401,0.000000,4.288000,0.000000,151.299896,1524821674000
Fix,gps,48.406131,15.512413,243.305237,0.000000,4.288000,0.000000,147.748871,1524821675000
Fix,gps,48.406131,15.512409,242.304321,0.000000,3.216000,0.000000,62.248901,1524821676000
Fix,gps,48.406135,15.512410,242.593750,0.000000,4.288000,0.000000,71.504791,1524821677000
Fix,gps,48.406136,15.512411,243.553589,0.000000,4.288000,0.000000,93.333282,1524821678000
Fix,gps,48.406136,15.512411,243.898987,0.000000,4.288000,0.000000,175.786011,1524821679000
Fix,gps,48.406135,15.512416,245.207214,0.000000,4.288000,0.000000,161.230042,1524821680000
Fix,gps,48.406134,15.512419,244.963989,0.000000,4.288000,0.000000,163.328552,1524821681000
Fix,gps,48.406135,15.512421,244.800232,0.000000,5.360000,0.000000,166.830566,1524821682000
Fix,gps,48.406134,15.512421,245.036255,0.000000,5.360000,0.000000,159.473389,1524821683000
Fix,gps,48.406134,15.512421,245.070557,0.000000,5.360000,0.000000,15.105072,1524821684000
Fix,gps,48.406127,15.512415,246.028259,0.970000,6.432000,203.800003,114.903748,1524821685000
Fix,gps,48.406102,15.512407,247.165039,3.440000,5.360000,182.699997,151.428741,1524821686000
Fix,gps,48.406061,15.512408,246.121338,4.440000,4.288000,159.699997,146.159515,1524821687000
Fix,gps,48.406000,15.512466,245.977478,6.290000,4.288000,137.100006,29.721222,1524821688000
Fix,gps,48.405937,15.512540,245.871887,8.230000,4.288000,133.899994,109.102814,1524821689000
Fix,gps,48.405873,15.512640,246.039307,10.560000,4.288000,133.300003,96.365967,1524821690000
Fix,gps,48.405801,15.512763,246.797668,12.340000,4.288000,133.399994,98.411987,1524821691000
Fix,gps,48.405708,15.512905,246.791321,14.910000,4.288000,133.500000,78.735443,1524821692000
Fix,gps,48.405615,15.513073,244.906860,16.620001,4.288000,134.100006,41.414520,1524821693000
Fix,gps,48.405519,15.513241,244.985352,18.219999,4.288000,136.600006,73.955475,1524821694000
Fix,gps,48.405390,15.513410,245.353271,19.440001,4.288000,138.800003,77.431213,1524821695000
Fix,gps,48.405255,15.513582,245.361084,19.629999,4.288000,140.199997,97.840546,1524821696000
Fix,gps,48.405117,15.513749,245.113037,19.389999,3.216000,142.300003,98.199005,1524821697000
Fix,gps,48.404975,15.513901,245.467163,19.350000,4.288000,143.399994,91.443420,1524821698000
Fix,gps,48.404825,15.514051,245.113647,19.430000,3.216000,145.699997,98.404816,1524821699000
Fix,gps,48.404681,15.514201,245.635132,19.600000,3.216000,146.600006,104.287415,1524821700000
Fix,gps,48.404528,15.514349,245.805420,19.790001,3.216000,146.000000,114.018097,1524821701000
Fix,gps,48.404377,15.514501,246.374634,20.000000,3.216000,145.100006,99.516266,1524821702000
Fix,gps,48.404228,15.514652,246.669617,20.160000,3.216000,143.899994,95.187286,1524821703000
Fix,gps,48.404082,15.514808,246.314575,20.170000,3.216000,143.800003,101.908752,1524821704000
Fix,gps,48.403937,15.514962,246.133667,20.170000,3.216000,143.300003,94.868042,1524821705000
Fix,gps,48.403785,15.515124,246.161072,20.510000,3.216000,144.800003,82.926270,1524821706000
Fix,gps,48.403633,15.515283,247.366211,20.410000,3.216000,147.500000,102.909546,1524821707000
Fix,gps,48.403476,15.515413,245.902893,20.260000,3.216000,150.699997,85.942108,1524821708000
Fix,gps,48.403322,15.515565,247.171509,20.190001,3.216000,150.699997,110.749176,1524821709000
Fix,gps,48.403167,15.515705,247.982666,20.150000,3.216000,148.800003,105.552917,1524821710000
Fix,gps,48.403018,15.515842,245.935608,20.370001,3.216000,147.600006,98.376465,1524821711000
Fix,gps,48.402862,15.516000,246.942383,20.670000,3.216000,147.100006,100.647003,1524821712000
Fix,gps,48.402705,15.516150,247.682495,20.830000,3.216000,147.399994,92.127502,1524821713000
Fix,gps,48.402539,15.516299,247.799561,20.870001,3.216000,149.699997,89.973358,1524821714000
Fix,gps,48.402377,15.516421,246.165710,20.750000,3.216000,150.800003,91.534698,1524821715000
Fix,gps,48.402202,15.516544,245.816833,21.080000,3.216000,154.399994,102.570160,1524821716000
Fix,gps,48.402029,15.516646,245.432007,20.580000,3.216000,156.500000,113.072144,1524821717000
Fix,gps,48.401858,15.516754,245.129272,20.219999,3.216000,157.699997,117.874237,1524821718000
Fix,gps,48.401682,15.516848,245.026855,20.299999,3.216000,158.800003,120.685120,1524821719000
Fix,gps,48.401514,15.516954,245.562378,20.100000,4.288000,158.199997,122.397797,1524821720000
Fix,gps,48.401347,15.517052,245.635986,19.879999,4.288000,159.199997,120.329773,1524821721000
Fix,gps,48.401177,15.517147,245.218323,19.660000,4.288000,160.199997,115.241211,1524821722000
Fix,gps,48.401007,15.517228,243.006775,19.280001,4.288000,160.500000,111.417938,1524821723000
Fix,gps,48.400860,15.517311,242.584351,18.830000,4.288000,160.300003,117.146027,1524821724000
Fix,gps,48.400701,15.517391,242.750854,18.549999,4.288000,161.199997,109.095245,1524821725000
Fix,gps,48.400564,15.517474,243.026184,18.040001,4.288000,161.600006,102.730560,1524821726000
Fix,gps,48.400408,15.517544,243.827698,17.959999,4.288000,162.600006,103.163940,1524821727000
Fix,gps,48.400253,15.517611,244.166504,17.750000,4.288000,164.399994,115.863525,1524821728000
Fix,gps,48.400099,15.517686,243.206787,17.350000,4.288000,164.699997,123.631165,1524821729000
Fix,gps,48.399954,15.517749,242.252136,16.340000,4.288000,165.399994,125.644470,1524821730000
Fix,gps,48.399817,15.517793,242.430542,15.600000,4.288000,165.600006,116.955292,1524821731000
Fix,gps,48.399685,15.517843,242.878357,14.670000,3.216000,164.899994,120.177399,1524821732000
Fix,gps,48.399558,15.517900,242.996155,14.200000,4.288000,165.199997,107.690125,1524821733000
Fix,gps,48.399436,15.517957,242.544556,14.090000,3.216000,165.199997,114.049194,1524821734000
Fix,gps,48.399315,15.517995,240.824463,14.140000,3.216000,165.399994,112.737976,1524821735000
Fix,gps,48.399193,15.518039,240.777466,13.880000,3.216000,165.199997,117.151672,1524821736000
Fix,gps,48.399069,15.518084,241.206970,13.800000,3.216000,165.500000,122.075043,1524821737000
Fix,gps,48.398949,15.518137,240.987610,13.460000,3.216000,165.800003,121.394379,1524821738000
Fix,gps,48.398835,15.518179,241.706543,13.150000,3.216000,165.600006,120.023285,1524821739000
Fix,gps,48.398715,15.518223,241.892700,12.990000,3.216000,165.699997,116.169495,1524821740000
Fix,gps,48.398614,15.518274,240.687988,12.640000,3.216000,166.500000,112.539185,1524821741000
Fix,gps,48.398510,15.518324,241.068298,12.350000,3.216000,166.600006,113.212891,1524821742000
Fix,gps,48.398401,15.518365,241.966492,12.030000,3.216000,167.300003,116.199524,1524821743000
Fix,gps,48.398300,15.518408,242.714844,11.750000,3.216000,167.199997,114.734528,1524821744000
Fix,gps,48.398199,15.518451,242.369324,11.540000,3.216000,166.199997,120.489655,1524821745000
Fix,gps,48.398103,15.518488,241.974060,11.100000,3.216000,165.300003,118.374847,1524821746000
Fix,gps,48.398012,15.518521,241.856873,10.770000,3.216000,165.600006,114.948364,1524821747000
Fix,gps,48.397924,15.518551,241.870117,10.450000,3.216000,164.699997,120.762909,1524821748000
Fix,gps,48.397838,15.518587,242.299683,10.090000,3.216000,163.699997,112.723572,1524821749000
Fix,gps,48.397760,15.518630,242.799683,9.600000,3.216000,162.500000,117.645996,1524821750000
Fix,gps,48.397679,15.518669,242.934692,9.240000,3.216000,160.300003,109.691437,1524821751000
Fix,gps,48.397604,15.518716,243.329407,9.090000,3.216000,156.899994,109.874512,1524821752000
Fix,gps,48.397520,15.518761,243.213318,9.580000,3.216000,154.500000,99.357422,1524821753000
Fix,gps,48.397439,15.518827,243.308899,9.880000,3.216000,151.300003,101.870392,1524821754000
Fix,gps,48.397359,15.518890,243.341431,10.360000,3.216000,148.399994,89.602234,1524821755000
Fix,gps,48.397273,15.518976,242.240417,11.120000,3.216000,145.300003,100.598083,1524821756000
Fix,gps,48.397185,15.519056,241.944519,11.140000,3.216000,146.100006,91.571106,1524821757000
Fix,gps,48.397102,15.519140,241.775024,11.140000,6.432000,146.100006,102.195435,1524821758000
Fix,gps,48.393572,15.523379,250.113953,16.740000,7.504000,158.699997,76.218079,1524821789000
Fix,gps,48.393400,15.523393,246.033081,17.330000,4.288000,163.699997,102.636993,1524821790000
Fix,gps,48.393241,15.523433,246.205261,17.059999,4.288000,167.600006,101.828857,1524821791000
Fix,gps,48.393085,15.523452,246.135498,17.240000,3.216000,172.899994,108.749023,1524821792000
Fix,gps,48.392931,15.523459,246.905823,17.280001,3.216000,177.500000,129.786102,1524821793000
Fix,gps,48.392768,15.523435,246.760498,17.500000,3.216000,183.100006,128.778412,1524821794000
Fix,gps,48.392612,15.523414,247.325073,17.610001,3.216000,186.899994,151.548157,1524821795000
Fix,gps,48.392446,15.523392,247.061584,18.200001,3.216000,185.800003,156.673584,1524821796000
Fix,gps,48.392291,15.523287,247.597656,17.860001,3.216000,197.199997,183.686951,1524821797000
Fix,gps,48.392137,15.523192,248.228516,18.420000,3.216000,201.399994,173.500854,1524821798000
Fix,gps,48.392007,15.523084,247.235046,18.059999,4.288000,206.399994,166.015930,1524821799000
Fix,gps,48.391867,15.522967,249.358276,18.160000,4.288000,208.100006,159.590698,1524821800000
Fix,gps,48.391722,15.522850,249.531250,18.549999,3.216000,208.000000,148.894165,1524821801000
Fix,gps,48.391565,15.522743,248.359497,18.860001,3.216000,206.500000,147.834503,1524821802000
Fix,gps,48.391403,15.522649,248.446289,19.190001,3.216000,202.399994,151.622040,1524821803000
Fix,gps,48.391238,15.522569,248.678284,19.320000,3.216000,198.000000,147.394653,1524821804000
Fix,gps,48.391065,15.522521,248.597717,19.420000,3.216000,192.300003,142.263000,1524821805000
Fix,gps,48.390901,15.522489,247.916992,19.129999,3.216000,185.000000,156.666016,1524821806000
Fix,gps,48.390737,15.522481,246.847168,19.150000,3.216000,178.500000,138.076385,1524821807000
Fix,gps,48.390567,15.522515,246.584534,19.270000,3.216000,172.100006,134.113708,1524821808000
Fix,gps,48.390417,15.522610,244.485596,19.610001,3.216000,165.399994,129.605591,1524821809000
Fix,gps,48.390241,15.522697,244.362732,19.930000,3.216000,159.800003,129.395050,1524821810000
Fix,gps,48.390092,15.522802,243.990784,19.680000,3.216000,153.199997,126.496429,1524821811000
Fix,gps,48.389943,15.522936,244.516113,19.320000,3.216000,146.899994,129.283478,1524821812000
Fix,gps,48.389802,15.523097,244.605469,19.490000,3.216000,140.300003,119.923920,1524821813000
Fix,gps,48.389669,15.523289,245.011780,19.770000,3.216000,133.699997,121.920380,1524821814000
Fix,gps,48.389558,15.523495,244.768066,20.230000,3.216000,127.800003,122.416748,1524821815000
Fix,gps,48.389461,15.523730,245.242676,21.000000,3.216000,121.800003,104.119843,1524821816000
Fix,gps,48.389362,15.523983,245.326660,21.900000,3.216000,119.099998,87.953613,1524821817000
Fix,gps,48.389269,15.524245,245.106750,21.990000,3.216000,117.400002,83.105103,1524821818000
Fix,gps,48.389182,15.524512,246.021118,21.680000,3.216000,117.800003,76.654968,1524821819000
Fix,gps,48.389086,15.524762,246.201904,21.240000,3.216000,119.699997,65.714355,1524821820000
Fix,gps,48.388983,15.525000,245.882202,21.030001,3.216000,123.599998,69.138184,1524821821000
Fix,gps,48.388871,15.525230,246.679871,20.959999,3.216000,127.300003,66.965698,1524821822000
Fix,gps,48.388753,15.525453,247.159180,20.900000,3.216000,129.300003,85.118744,1524821823000
Fix,gps,48.388647,15.525677,246.702881,20.900000,3.216000,130.199997,83.539581,1524821824000
Fix,gps,48.388525,15.525895,246.377136,20.990000,3.216000,130.300003,97.952698,1524821825000
Fix,gps,48.388407,15.526108,245.740723,21.059999,3.216000,130.399994,90.118347,1524821826000
Fix,gps,48.388297,15.526330,247.141846,21.150000,3.216000,129.699997,96.224213,1524821827000
Fix,gps,48.388167,15.526555,247.031494,21.299999,3.216000,128.500000,94.734314,1524821828000
Fix,gps,48.388048,15.526789,247.029175,21.520000,3.216000,127.800003,88.718628,1524821829000
Fix,gps,48.387927,15.527020,247.008057,21.860001,3.216000,126.699997,97.496643,1524821830000
Fix,gps,48.387813,15.527270,246.974182,22.020000,3.216000,125.400002,99.964935,1524821831000
Fix,gps,48.387701,15.527518,247.127380,22.190001,3.216000,124.300003,74.302673,1524821832000
Fix,gps,48.387593,15.527766,247.059937,22.350000,3.216000,123.199997,83.867126,1524821833000
Fix,gps,48.387485,15.528021,246.738403,22.500000,3.216000,122.500000,78.267700,1524821834000
Fix,gps,48.387376,15.528275,246.951843,22.700001,3.216000,121.800003,85.057098,1524821835000
Fix,gps,48.387268,15.528541,246.266113,22.830000,3.216000,121.099998,87.993134,1524821836000
Fix,gps,48.387161,15.528816,245.877930,22.920000,3.216000,119.699997,95.851654,1524821837000
Fix,gps,48.387064,15.529103,246.587524,22.559999,3.216000,117.800003,88.732758,1524821838000
Fix,gps,48.386976,15.529368,246.878540,22.360001,4.288000,117.199997,88.667999,1524821839000
Fix,gps,48.386891,15.529631,246.559753,21.910000,4.288000,115.300003,81.872223,1524821840000
Fix,gps,48.386806,15.529906,246.620605,21.900000,4.288000,114.300003,80.213287,1524821841000
Fix,gps,48.386733,15.530169,246.837036,21.969999,4.288000,112.599998,98.199982,1524821842000
Fix,gps,48.386663,15.530440,246.807373,22.070000,4.288000,110.400002,101.582642,1524821843000
Fix,gps,48.386606,15.530724,245.817627,22.020000,4.288000,108.000000,78.837372,1524821844000
Fix,gps,48.386546,15.531004,245.940613,21.860001,4.288000,107.300003,63.756958,1524821845000
Fix,gps,48.386472,15.531282,245.913269,21.590000,4.288000,110.000000,73.989441,1524821846000
Fix,gps,48.386407,15.531547,245.775879,21.180000,4.288000,113.800003,56.527161,1524821847000
Fix,gps,48.386325,15.531793,246.488281,20.559999,4.288000,116.400002,61.588989,1524821848000
Fix,gps,48.386231,15.532035,245.905212,20.650000,4.288000,121.900002,69.459930,1524821849000
Fix,gps,48.386128,15.532256,246.485046,20.070000,4.288000,124.199997,85.309967,1524821850000
Fix,gps,48.386023,15.532479,246.562439,19.870001,3.216000,124.500000,84.922150,1524821851000
Fix,gps,48.385925,15.532699,246.667542,19.809999,3.216000,124.000000,84.734009,1524821852000
Fix,gps,48.385826,15.532929,246.398926,19.879999,3.216000,122.800003,105.560486,1524821853000
Fix,gps,48.385731,15.533167,246.037537,19.940001,3.216000,120.000000,102.462036,1524821854000
Fix,gps,48.385646,15.533410,246.288147,20.139999,3.216000,116.800003,93.662720,1524821855000
Fix,gps,48.385575,15.533655,246.032349,20.209999,3.216000,112.599998,103.568329,1524821856000
Fix,gps,48.385514,15.533909,246.325684,20.459999,3.216000,109.300003,89.041229,1524821857000
Fix,gps,48.385466,15.534174,246.860413,20.360001,3.216000,104.699997,89.870667,1524821858000
Fix,gps,48.385439,15.534438,247.423279,20.020000,3.216000,100.900002,84.057404,1524821859000
Fix,gps,48.385415,15.534717,248.188416,19.840000,3.216000,97.300003,67.911011,1524821860000
Fix,gps,48.385400,15.534984,247.954834,19.820000,3.216000,94.800003,90.122772,1524821861000
Fix,gps,48.385392,15.535257,248.036072,19.910000,3.216000,91.000000,64.421936,1524821862000
Fix,gps,48.385399,15.535535,248.119812,20.120001,3.216000,87.900002,53.738281,1524821863000
Fix,gps,48.385413,15.535810,247.956177,20.309999,3.216000,86.099998,67.807922,1524821864000
Fix,gps,48.385442,15.536085,247.355957,20.820000,3.216000,83.400002,65.859833,1524821865000
Fix,gps,48.385472,15.536368,247.549622,21.139999,3.216000,82.000000,64.780548,1524821866000
Fix,gps,48.385524,15.536631,244.746094,21.870001,3.216000,80.099998,61.376953,1524821867000
Fix,gps,48.385547,15.536918,239.952881,22.900000,3.216000,79.599998,85.079041,1524821868000
Fix,gps,48.385581,15.537235,236.312988,23.990000,3.216000,79.099998,59.681335,1524821869000
Fix,gps,48.385643,15.537539,235.863708,24.260000,3.216000,78.500000,62.504089,1524821870000
Fix,gps,48.385686,15.537859,235.485596,23.940001,3.216000,77.699997,44.367432,1524821871000
Fix,gps,48.385726,15.538174,237.555542,23.990000,4.288000,78.099998,52.134216,1524821872000
Fix,gps,48.385778,15.538486,236.902222,23.879999,4.288000,77.599998,67.006042,1524821873000
Fix,gps,48.385809,15.538804,232.792358,23.879999,4.288000,77.500000,58.086731,1524821874000
Fix,gps,48.385858,15.539117,231.938660,23.950001,4.288000,76.900002,57.105438,1524821875000
Fix,gps,48.385912,15.539432,233.159302,23.940001,4.288000,76.599998,63.253143,1524821876000
Fix,gps,48.385968,15.539748,233.870667,23.799999,4.288000,76.099998,69.644684,1524821877000
Fix,gps,48.386022,15.540058,234.510376,23.780001,4.288000,75.500000,56.116699,1524821878000
Fix,gps,48.386078,15.540364,235.678406,23.639999,4.288000,75.199997,65.031097,1524821879000
Fix,gps,48.386136,15.540669,236.184631,23.559999,4.288000,74.000000,74.241730,1524821880000
Fix,gps,48.386194,15.540971,236.610291,23.500000,4.288000,73.300003,61.715576,1524821881000
Fix,gps,48.386257,15.541272,237.519287,23.389999,4.288000,72.599998,60.258179,1524821882000
Fix,gps,48.386323,15.541574,238.603943,23.370001,4.288000,72.300003,66.906769,1524821883000
Fix,gps,48.386385,15.541873,238.940857,23.280001,4.288000,71.900002,48.786224,1524821884000
Fix,gps,48.386443,15.542179,238.569824,23.280001,5.360000,70.599998,67.322815,1524821885000
Fix,gps,48.386511,15.542472,238.705933,23.230000,4.288000,70.000000,73.263458,1524821886000
Fix,gps,48.386588,15.542758,238.741821,23.010000,4.288000,69.000000,61.317383,1524821887000
Fix,gps,48.386661,15.543042,239.112427,22.760000,5.360000,68.599998,51.824310,1524821888000
Fix,gps,48.386733,15.543321,238.720825,22.480000,5.360000,68.300003,63.175964,1524821889000
Fix,gps,48.386815,15.543614,239.795044,22.660000,5.360000,66.599998,50.274475,1524821890000
Fix,gps,48.386896,15.543885,240.370300,22.700001,4.288000,67.099998,54.195709,1524821891000
Fix,gps,48.386979,15.544169,240.761963,22.639999,5.360000,66.500000,62.864258,1524821892000
Fix,gps,48.387067,15.544444,240.750122,22.860001,5.360000,65.900002,44.991821,1524821893000
Fix,gps,48.387153,15.544715,241.149902,22.740000,4.288000,64.800003,63.719238,1524821894000
Fix,gps,48.387240,15.544992,241.347229,22.629999,4.288000,64.199997,59.799469,1524821895000
Fix,gps,48.387330,15.545258,241.490906,22.160000,4.288000,63.299999,52.435883,1524821896000
Fix,gps,48.387421,15.545527,241.622620,21.860001,4.288000,62.900002,53.571075,1524821897000
Fix,gps,48.387514,15.545778,242.516174,21.690001,3.216000,62.000000,49.632355,1524821898000
Fix,gps,48.387613,15.546034,243.192322,21.709999,3.216000,60.799999,57.046448,1524821899000
Fix,gps,48.387710,15.546288,243.198242,21.670000,3.216000,60.000000,53.591644,1524821900000
Fix,gps,48.387811,15.546540,243.745850,21.809999,3.216000,58.900002,56.098236,1524821901000
Fix,gps,48.387921,15.546786,243.848511,21.910000,3.216000,56.799999,47.704926,1524821902000
Fix,gps,48.388032,15.547039,244.424927,22.370001,3.216000,55.400002,48.869781,1524821903000
Fix,gps,48.388147,15.547301,244.452759,22.770000,3.216000,54.099998,54.513550,1524821904000
Fix,gps,48.388274,15.547545,243.963379,22.910000,3.216000,54.000000,36.875275,1524821905000
Fix,gps,48.388401,15.547792,244.204468,23.110001,4.288000,52.700001,52.749176,1524821906000
Fix,gps,48.388532,15.548041,245.161194,23.389999,3.216000,52.299999,50.685028,1524821907000
Fix,gps,48.388664,15.548287,246.001221,23.790001,3.216000,52.200001,24.288177,1524821908000
Fix,gps,48.388801,15.548540,243.105469,24.530001,3.216000,51.900002,54.224670,1524821909000
Fix,gps,48.388949,15.548813,241.107300,25.520000,3.216000,52.000000,34.006775,1524821910000
Fix,gps,48.389099,15.549096,241.204407,26.840000,3.216000,51.700001,48.005890,1524821911000
Fix,gps,48.389248,15.549373,238.929077,26.830000,3.216000,52.400002,50.077271,1524821912000
Fix,gps,48.389391,15.549667,238.875488,26.660000,4.288000,53.000000,42.447845,1524821913000
Fix,gps,48.389540,15.549965,239.714844,26.260000,4.288000,53.200001,64.781647,1524821914000
Fix,gps,48.389680,15.550243,239.818665,25.709999,4.288000,54.099998,44.263733,1524821915000
Fix,gps,48.389804,15.550532,237.809937,25.610001,4.288000,54.400002,55.500916,1524821916000
Fix,gps,48.389937,15.550820,238.180298,25.400000,4.288000,54.599998,56.830688,1524821917000
Fix,gps,48.390067,15.551103,237.638428,25.420000,4.288000,54.700001,45.581299,1524821918000
Fix,gps,48.390194,15.551378,237.647949,25.389999,4.288000,55.299999,32.207153,1524821919000
Fix,gps,48.390321,15.551656,237.991943,25.490000,3.216000,55.000000,47.594635,1524821920000
Fix,gps,48.390447,15.551945,237.317383,25.490000,3.216000,55.599998,66.543182,1524821921000
Fix,gps,48.390576,15.552231,237.378357,25.389999,3.216000,55.500000,45.865173,1524821922000
Fix,gps,48.390699,15.552512,237.167847,25.320000,3.216000,55.799999,58.867737,1524821923000
Fix,gps,48.390816,15.552788,236.680054,24.770000,3.216000,55.900002,47.277405,1524821924000
Fix,gps,48.390937,15.553067,237.456482,24.370001,3.216000,55.700001,59.300140,1524821925000
Fix,gps,48.391053,15.553336,237.852234,24.010000,3.216000,55.599998,48.401855,1524821926000
Fix,gps,48.391178,15.553602,237.817017,23.600000,3.216000,55.400002,47.595734,1524821927000
Fix,gps,48.391294,15.553847,236.635681,22.940001,3.216000,55.200001,66.384094,1524821928000
Fix,gps,48.391409,15.554103,237.201965,22.620001,3.216000,55.799999,47.278503,1524821929000
Fix,gps,48.391519,15.554350,236.602478,22.500000,3.216000,55.400002,56.996277,1524821930000
Fix,gps,48.391638,15.554609,235.920776,22.600000,3.216000,55.400002,76.990112,1524821931000
Fix,gps,48.391752,15.554859,236.477417,22.650000,4.288000,55.500000,42.162079,1524821932000
Fix,gps,48.391881,15.555103,237.204224,22.790001,4.288000,55.099998,43.102814,1524821933000
Fix,gps,48.391997,15.555360,237.227539,22.930000,3.216000,56.500000,40.295441,1524821934000
Fix,gps,48.392105,15.555618,237.299683,23.059999,3.216000,57.599998,42.554962,1524821935000
Fix,gps,48.392209,15.555892,236.961731,23.110001,3.216000,58.000000,27.832825,1524821936000
Fix,gps,48.392315,15.556150,238.070923,22.950001,3.216000,58.299999,45.457794,1524821937000
Fix,gps,48.392437,15.556420,238.816589,23.309999,4.288000,57.799999,30.237579,1524821938000
Fix,gps,48.392516,15.556677,238.503174,22.790001,4.288000,61.500000,53.463867,1524821939000
Fix,gps,48.392613,15.556955,237.661438,22.860001,4.288000,62.000000,54.891968,1524821940000
Fix,gps,48.392710,15.557233,237.268433,22.860001,4.288000,62.400002,52.554932,1524821941000
Fix,gps,48.392800,15.557509,237.487793,22.930000,4.288000,63.000000,47.355438,1524821942000
Fix,gps,48.392888,15.557793,238.189270,23.000000,3.216000,64.599998,41.342987,1524821943000
Fix,gps,48.392972,15.558077,238.212280,22.780001,3.216000,64.300003,53.424438,1524821944000
Fix,gps,48.393069,15.558362,240.273010,23.190001,3.216000,66.300003,45.670441,1524821945000
Fix,gps,48.393155,15.558657,241.166748,23.389999,3.216000,66.400002,60.510468,1524821946000
Fix,gps,48.393239,15.558950,240.343872,23.600000,3.216000,66.599998,72.104218,1524821947000
Fix,gps,48.393343,15.559240,240.021362,23.690001,3.216000,65.000000,70.867188,1524821948000
Fix,gps,48.393440,15.559522,239.655029,23.600000,4.288000,64.199997,52.097931,1524821949000
Fix,gps,48.393536,15.559803,239.380554,23.620001,4.288000,63.599998,67.369110,1524821950000
Fix,gps,48.393632,15.560088,238.324158,23.660000,4.288000,62.599998,58.292511,1524821951000
Fix,gps,48.393744,15.560366,238.593384,23.240000,4.288000,60.299999,55.098572,1524821952000
Fix,gps,48.393837,15.560632,237.639038,22.950001,4.288000,59.500000,51.093018,1524821953000
Fix,gps,48.393951,15.560905,238.113220,23.450001,4.288000,60.099998,46.813965,1524821954000
Fix,gps,48.394050,15.561174,237.895386,22.889999,4.288000,59.299999,41.388275,1524821955000
Fix,gps,48.394149,15.561439,237.867188,22.900000,4.288000,59.200001,44.418488,1524821956000
Fix,gps,48.394261,15.561708,237.419556,22.950001,4.288000,59.700001,46.480347,1524821957000
Fix,gps,48.394359,15.561973,237.535583,23.030001,5.360000,60.500000,38.917084,1524821958000
Fix,gps,48.394468,15.562255,236.664368,23.209999,5.360000,61.400002,64.086792,1524821959000
Fix,gps,48.394561,15.562534,236.582153,23.230000,5.360000,62.500000,50.958801,1524821960000
Fix,gps,48.394667,15.562816,236.861816,23.309999,5.360000,62.500000,45.883179,1524821961000
Fix,gps,48.394775,15.563090,237.419189,23.260000,5.360000,62.000000,69.507599,1524821962000
Fix,gps,48.394883,15.563376,236.935303,23.240000,6.432000,61.299999,56.040680,1524821963000
Fix,gps,48.394991,15.563647,237.426697,23.400000,6.432000,60.000000,58.888031,1524821964000
Fix,gps,48.395094,15.563921,238.105408,23.330000,5.360000,59.500000,42.927185,1524821965000
Fix,gps,48.395207,15.564188,238.014404,23.350000,6.432000,58.799999,35.874786,1524821966000
Fix,gps,48.395308,15.564456,237.217163,23.180000,5.360000,58.799999,52.458069,1524821967000
Fix,gps,48.395417,15.564724,237.442261,23.139999,5.360000,57.900002,47.471405,1524821968000
Fix,gps,48.395512,15.564993,234.673828,23.120001,6.432000,57.799999,45.913940,1524821969000
Fix,gps,48.395642,15.565249,236.900452,22.860001,6.432000,56.900002,52.245392,1524821970000
Fix,gps,48.395762,15.565481,233.393311,22.469999,7.504000,55.400002,43.018188,1524821971000
Fix,gps,48.395878,15.565726,234.355225,22.260000,7.504000,55.200001,47.555237,1524821972000
Fix,gps,48.395986,15.565964,234.159668,21.850000,7.504000,55.000000,44.484924,1524821973000
Fix,gps,48.396090,15.566202,232.795532,21.260000,7.504000,55.400002,51.121552,1524821974000
Fix,gps,48.396197,15.566429,233.876160,21.010000,6.432000,55.099998,40.768677,1524821975000
Fix,gps,48.396290,15.566660,234.681641,20.690001,6.432000,55.200001,56.388916,1524821976000
Fix,gps,48.396396,15.566892,236.109985,20.330000,6.432000,55.200001,37.196228,1524821977000
Fix,gps,48.396500,15.567114,236.796204,19.920000,5.360000,54.799999,38.151733,1524821978000
Fix,gps,48.396587,15.567332,236.653870,19.459999,5.360000,55.500000,55.720459,1524821979000
Fix,gps,48.396673,15.567547,235.514404,19.139999,4.288000,55.500000,21.817413,1524821980000
Fix,gps,48.396766,15.567755,235.968994,18.620001,3.216000,55.799999,51.468872,1524821981000
Fix,gps,48.396862,15.567956,235.045593,18.360001,3.216000,55.500000,61.617706,1524821982000
Fix,gps,48.396955,15.568148,234.844055,18.059999,3.216000,55.099998,44.637665,1524821983000
Fix,gps,48.397038,15.568351,234.173584,17.860001,4.288000,56.099998,42.995209,1524821984000
Fix,gps,48.397143,15.568527,234.962463,17.650000,5.360000,53.799999,48.257294,1524821985000
Fix,gps,48.397238,15.568705,235.244995,17.299999,4.288000,53.900002,59.612885,1524821986000
Fix,gps,48.397301,15.568908,234.602539,16.440001,4.288000,54.200001,51.387939,1524821987000
Fix,gps,48.397387,15.569074,233.409729,15.710000,4.288000,53.900002,54.353851,1524821988000
Fix,gps,48.397463,15.569239,234.577515,14.850000,4.288000,53.799999,39.259735,1524821989000
Fix,gps,48.397530,15.569392,235.698425,13.540000,4.288000,53.599998,43.778900,1524821990000
Fix,gps,48.397592,15.569531,235.336243,12.810000,4.288000,54.400002,42.051636,1524821991000
Fix,gps,48.397651,15.569663,236.154175,11.840000,4.288000,54.700001,45.788544,1524821992000
Fix,gps,48.397712,15.569773,234.985474,11.390000,4.288000,54.799999,48.439453,1524821993000
Fix,gps,48.397764,15.569897,234.785461,10.940000,4.288000,54.900002,48.432434,1524821994000
Fix,gps,48.397808,15.570018,235.723877,10.540000,3.216000,55.000000,41.195953,1524821995000
Fix,gps,48.397858,15.570130,234.687927,10.320000,4.288000,55.400002,55.781952,1524821996000
Fix,gps,48.397905,15.570245,234.083923,10.250000,4.288000,56.000000,52.527771,1524821997000
Fix,gps,48.397957,15.570354,234.902344,9.950000,4.288000,56.000000,53.288971,1524821998000
Fix,gps,48.397999,15.570457,235.653931,8.930000,3.216000,57.200001,47.538239,1524821999000
Fix,gps,48.398043,15.570550,236.573853,8.070000,3.216000,59.000000,46.087189,1524822000000
Fix,gps,48.398067,15.570659,237.343140,7.420000,4.288000,64.300003,50.512482,1524822001000
Fix,gps,48.398097,15.570729,240.568298,6.880000,4.288000,72.699997,64.495575,1524822002000
Fix,gps,48.398119,15.570828,240.486816,6.800000,4.288000,71.300003,89.632233,1524822003000
Fix,gps,48.398145,15.570910,241.071350,6.410000,4.288000,57.500000,94.226776,1524822004000
Fix,gps,48.398203,15.570971,243.029419,6.490000,3.216000,37.900002,99.673615,1524822005000
Fix,gps,48.398249,15.571007,243.118591,6.080000,3.216000,24.100000,97.806274,1524822006000
Fix,gps,48.398311,15.570968,244.203003,6.020000,3.216000,334.399994,87.635345,1524822007000
Fix,gps,48.398356,15.570905,245.228027,6.660000,3.216000,315.200012,317.663300,1524822008000
Fix,gps,48.398426,15.570836,248.022156,6.840000,3.216000,329.399994,295.094879,1524822009000
Fix,gps,48.398489,15.570835,248.664063,7.090000,4.288000,359.399994,298.001953,1524822010000
Fix,gps,48.398546,15.570852,245.800781,7.800000,4.288000,24.799999,315.419525,1524822011000
Fix,gps,48.398599,15.570923,246.806152,8.670000,3.216000,44.099998,309.089783,1524822012000
Fix,gps,48.398646,15.571029,247.973633,9.410000,3.216000,60.099998,347.294403,1524822013000
Fix,gps,48.398673,15.571156,247.959839,10.340000,3.216000,71.800003,60.667389,1524822014000
