#
# Header Description:
#
# Version: v2.0.0.1 Platform: 8.1.0 Manufacturer: Google Model: Pixel 2
#
# Raw,ElapsedRealtimeMillis,TimeNanos,LeapSecond,TimeUncertaintyNanos,FullBiasNanos,BiasNanos,BiasUncertaintyNanos,DriftNanosPerSecond,DriftUncertaintyNanosPerSecond,HardwareClockDiscontinuityCount,Svid,TimeOffsetNanos,State,ReceivedSvTimeNanos,ReceivedSvTimeUncertaintyNanos,Cn0DbHz,PseudorangeRateMetersPerSecond,PseudorangeRateUncertaintyMetersPerSecond,AccumulatedDeltaRangeState,AccumulatedDeltaRangeMeters,AccumulatedDeltaRangeUncertaintyMeters,CarrierFrequencyHz,CarrierCycles,CarrierPhase,CarrierPhaseUncertainty,MultipathIndicator,SnrInDb,ConstellationType,AgcDb,CarrierFrequencyHz
#
# Fix,Provider,Latitude,Longitude,Altitude,Speed,Accuracy,(UTC)TimeInMs
#
# Nav,Svid,Type,Status,MessageId,Sub-messageId,Data(Bytes)
#
Fix,gps,48.353785,15.696613,290.680298,8.890000,4.288000,1524647356000
Fix,gps,48.353763,15.696499,290.420166,8.520000,4.288000,1524647357000
Fix,gps,48.353747,15.696387,289.571350,7.980000,4.288000,1524647358000
Fix,gps,48.353731,15.696283,289.689575,7.690000,4.288000,1524647359000
Fix,gps,48.353715,15.696182,288.938538,7.570000,4.288000,1524647360000
Fix,gps,48.353699,15.696080,288.338135,7.410000,4.288000,1524647361000
Fix,gps,48.353681,15.695987,288.438843,7.240000,4.288000,1524647362000
Fix,gps,48.353661,15.695898,288.315002,7.170000,4.288000,1524647363000
Fix,gps,48.353642,15.695804,288.853210,6.850000,4.288000,1524647364000
Fix,gps,48.353634,15.695722,288.327148,6.360000,4.288000,1524647365000
Fix,gps,48.353626,15.695639,288.517700,6.220000,4.288000,1524647366000
Fix,gps,48.353617,15.695559,288.657104,6.520000,4.288000,1524647367000
Fix,gps,48.353589,15.695477,287.656494,7.300000,5.360000,1524647368000
Fix,gps,48.353547,15.695386,287.029785,8.050000,5.360000,1524647369000
Fix,gps,48.353494,15.695290,286.863892,9.350000,6.432000,1524647370000
Fix,gps,48.353451,15.695186,287.684937,9.850000,5.360000,1524647371000
Fix,gps,48.353405,15.695078,287.695557,10.410000,5.360000,1524647372000
Fix,gps,48.353418,15.694961,290.809143,10.320000,5.360000,1524647373000
Fix,gps,48.353370,15.694847,291.316284,10.420000,5.360000,1524647374000
Fix,gps,48.353307,15.694720,291.034241,11.450000,4.288000,1524647375000
Fix,gps,48.353249,15.694590,291.738159,11.500000,4.288000,1524647376000
Fix,gps,48.353188,15.694454,291.864075,11.440000,4.288000,1524647377000
Fix,gps,48.353133,15.694323,292.186279,11.560000,4.288000,1524647378000
Fix,gps,48.353078,15.694190,291.704346,11.850000,4.288000,1524647379000
Fix,gps,48.353026,15.694047,291.890686,11.890000,4.288000,1524647380000
Fix,gps,48.352979,15.693899,292.324097,12.070000,3.216000,1524647381000
Fix,gps,48.352945,15.693750,292.486267,12.200000,3.216000,1524647382000
Fix,gps,48.352913,15.693590,292.592834,12.320000,3.216000,1524647383000
Fix,gps,48.352891,15.693428,293.025635,12.490000,3.216000,1524647384000
Fix,gps,48.352867,15.693260,293.151001,12.480000,3.216000,1524647385000
Fix,gps,48.352847,15.693094,293.288513,12.210000,4.288000,1524647386000
Fix,gps,48.352831,15.692942,293.983032,11.590000,3.216000,1524647387000
Fix,gps,48.352817,15.692786,294.281494,10.970000,3.216000,1524647388000
Fix,gps,48.352804,15.692645,294.488708,10.220000,3.216000,1524647389000
Fix,gps,48.352794,15.692517,294.595520,9.630000,3.216000,1524647390000
Fix,gps,48.352783,15.692390,294.965942,9.200000,3.216000,1524647391000
Fix,gps,48.352770,15.692270,294.900635,8.870000,3.216000,1524647392000
Fix,gps,48.352752,15.692151,295.545532,8.660000,3.216000,1524647393000
Fix,gps,48.352732,15.692034,295.808594,8.930000,3.216000,1524647394000
Fix,gps,48.352718,15.691910,295.619019,9.610000,3.216000,1524647395000
Fix,gps,48.352701,15.691770,296.507935,10.260000,3.216000,1524647396000
Fix,gps,48.352674,15.691640,297.209045,10.370000,3.216000,1524647397000
Fix,gps,48.352637,15.691506,298.135498,10.530000,3.216000,1524647398000
Fix,gps,48.352585,15.691383,297.419617,10.770000,3.216000,1524647399000
Fix,gps,48.352526,15.691267,297.793518,10.760000,3.216000,1524647400000
Fix,gps,48.352458,15.691157,298.502380,10.620000,3.216000,1524647401000
Fix,gps,48.352386,15.691065,299.075806,10.420000,3.216000,1524647402000
Fix,gps,48.352318,15.690978,299.886108,9.900000,3.216000,1524647403000
Fix,gps,48.352253,15.690864,299.912048,9.990000,3.216000,1524647404000
Fix,gps,48.352202,15.690745,300.869629,10.130000,3.216000,1524647405000
Fix,gps,48.352171,15.690614,301.571838,10.250000,3.216000,1524647406000
Fix,gps,48.351875,15.690022,307.068481,10.470000,3.216000,1524647412000
Fix,gps,48.351798,15.689914,308.599548,11.450000,3.216000,1524647413000
Fix,gps,48.351725,15.689788,310.107788,12.540000,3.216000,1524647414000
Fix,gps,48.351647,15.689654,311.781921,13.360000,3.216000,1524647415000
Fix,gps,48.351534,15.689504,313.142395,14.960000,3.216000,1524647416000
Fix,gps,48.351424,15.689363,315.059204,16.110001,3.216000,1524647417000
Fix,gps,48.351302,15.689212,316.568237,17.430000,3.216000,1524647418000
Fix,gps,48.351174,15.689055,318.687988,18.370001,3.216000,1524647419000
Fix,gps,48.351033,15.688882,320.426147,19.280001,3.216000,1524647420000
Fix,gps,48.350909,15.688714,322.431030,19.030001,3.216000,1524647421000
Fix,gps,48.350789,15.688535,324.444397,18.650000,3.216000,1524647422000
Fix,gps,48.350674,15.688355,326.271118,18.770000,3.216000,1524647423000
Fix,gps,48.350562,15.688181,328.266113,18.830000,3.216000,1524647424000
Fix,gps,48.350427,15.688004,330.680664,19.129999,4.288000,1524647425000
Fix,gps,48.350286,15.687852,332.519897,19.920000,4.288000,1524647426000
Fix,gps,48.350130,15.687699,334.434326,20.940001,4.288000,1524647427000
Fix,gps,48.349970,15.687542,336.562744,20.549999,4.288000,1524647428000
Fix,gps,48.349823,15.687395,338.509766,20.000000,4.288000,1524647429000
Fix,gps,48.349679,15.687225,340.398560,20.110001,5.360000,1524647430000
Fix,gps,48.349306,15.686665,343.567993,19.610001,5.360000,1524647433000
Fix,gps,48.349172,15.686492,344.568359,20.730000,6.432000,1524647434000
Fix,gps,48.349020,15.686322,345.655396,21.260000,6.432000,1524647435000
Fix,gps,48.348869,15.686156,346.815552,20.690001,6.432000,1524647436000
Fix,gps,48.348741,15.685991,348.675720,20.000000,6.432000,1524647437000
Fix,gps,48.348615,15.685823,350.023315,19.340000,6.432000,1524647438000
Fix,gps,48.348475,15.685643,349.986450,19.120001,6.432000,1524647439000
Fix,gps,48.348364,15.685488,350.787598,18.690001,6.432000,1524647440000
Fix,gps,48.348261,15.685341,354.039795,18.290001,6.432000,1524647441000
Fix,gps,48.348134,15.685203,356.696777,17.350000,6.432000,1524647442000
Fix,gps,48.348002,15.685069,358.975464,16.410000,6.432000,1524647443000
Fix,gps,48.347880,15.684954,361.975708,15.420000,6.432000,1524647444000
Fix,gps,48.347765,15.684851,364.501404,14.680000,6.432000,1524647445000
Fix,gps,48.347663,15.684751,367.517944,14.080000,6.432000,1524647446000
Fix,gps,48.347551,15.684680,370.183716,13.510000,6.432000,1524647447000
Fix,gps,48.347435,15.684649,372.753296,13.620000,6.432000,1524647448000
Fix,gps,48.347304,15.684654,374.896179,14.880000,6.432000,1524647449000
Fix,gps,48.347182,15.684689,378.133972,15.020000,6.432000,1524647450000
Fix,gps,48.347048,15.684730,380.296387,14.740000,5.360000,1524647451000
Fix,gps,48.346926,15.684780,382.295410,13.970000,5.360000,1524647452000
Fix,gps,48.346774,15.684824,378.995972,13.730000,5.360000,1524647453000
Fix,gps,48.346663,15.684832,379.240295,12.680000,5.360000,1524647454000
Fix,gps,48.346557,15.684802,380.948364,12.580000,6.432000,1524647455000
Fix,gps,48.346458,15.684727,382.991699,12.730000,6.432000,1524647456000
Fix,gps,48.346350,15.684617,382.609131,13.930000,6.432000,1524647457000
Fix,gps,48.346233,15.684492,382.975220,15.740000,8.576000,1524647458000
Fix,gps,48.346081,15.684316,375.272461,18.230000,7.504000,1524647459000
Fix,gps,48.345932,15.684136,369.964844,19.790001,6.432000,1524647460000
Fix,gps,48.345781,15.683973,369.366089,20.889999,6.432000,1524647461000
Fix,gps,48.345631,15.683825,370.899292,20.480000,7.504000,1524647462000
Fix,gps,48.345465,15.683682,368.021667,20.020000,8.576000,1524647463000
Fix,gps,48.345318,15.683537,368.964111,19.290001,8.576000,1524647464000
Fix,gps,48.345165,15.683406,370.116089,18.700001,8.576000,1524647465000
Fix,gps,48.345060,15.683293,371.286621,17.309999,8.576000,1524647466000
Fix,gps,48.344930,15.683189,373.118774,16.610001,7.504000,1524647467000
Fix,gps,48.344802,15.683128,374.624390,15.180000,7.504000,1524647468000
Fix,gps,48.344661,15.683118,377.274414,14.960000,7.504000,1524647469000
Fix,gps,48.344519,15.683133,379.306641,15.020000,6.432000,1524647470000
Fix,gps,48.344384,15.683168,382.610718,14.740000,6.432000,1524647471000
Fix,gps,48.344256,15.683211,384.569214,13.970000,6.432000,1524647472000
Fix,gps,48.344131,15.683243,385.841553,13.330000,5.360000,1524647473000
Fix,gps,48.344012,15.683270,389.626831,12.330000,5.360000,1524647474000
Fix,gps,48.343901,15.683275,392.867859,11.660000,5.360000,1524647475000
Fix,gps,48.343800,15.683267,395.785889,10.950000,5.360000,1524647476000
Fix,gps,48.343702,15.683246,398.410767,10.400000,10.720000,1524647477000
Fix,gps,48.343585,15.683153,394.572388,10.790000,5.360000,1524647478000
Fix,gps,48.343496,15.683044,391.167297,11.410000,4.288000,1524647479000
Fix,gps,48.343400,15.682939,391.610229,12.650000,3.216000,1524647480000
Fix,gps,48.343296,15.682829,392.183716,14.210000,3.216000,1524647481000
Fix,gps,48.343180,15.682715,392.611389,15.780000,3.216000,1524647482000
Fix,gps,48.343056,15.682615,392.050659,17.340000,3.216000,1524647483000
Fix,gps,48.342905,15.682520,392.140869,18.410000,4.288000,1524647484000
Fix,gps,48.342756,15.682425,393.433777,18.559999,4.288000,1524647485000
Fix,gps,48.342599,15.682333,395.849731,18.500000,4.288000,1524647486000
Fix,gps,48.342449,15.682240,397.471436,18.490000,4.288000,1524647487000
Fix,gps,48.342308,15.682130,399.556396,18.180000,3.216000,1524647488000
Fix,gps,48.342163,15.682004,402.093994,17.440001,3.216000,1524647489000
Fix,gps,48.342034,15.681884,403.929443,17.110001,3.216000,1524647490000
Fix,gps,48.341909,15.681769,404.759766,17.480000,4.288000,1524647491000
Fix,gps,48.341761,15.681663,405.192139,17.580000,4.288000,1524647492000
Fix,gps,48.341626,15.681569,405.814453,16.830000,4.288000,1524647493000
Fix,gps,48.341501,15.681463,406.899780,16.010000,4.288000,1524647494000
Fix,gps,48.341390,15.681337,406.818359,15.350000,3.216000,1524647495000
Fix,gps,48.341295,15.681190,406.964783,15.200000,4.288000,1524647496000
Fix,gps,48.341219,15.681019,405.927856,15.230000,3.216000,1524647497000
Fix,gps,48.341157,15.680842,405.407349,14.890000,3.216000,1524647498000
Fix,gps,48.341102,15.680661,405.590271,14.550000,3.216000,1524647499000
Fix,gps,48.341049,15.680485,405.855164,14.160000,3.216000,1524647500000
Fix,gps,48.341001,15.680314,405.519043,13.670000,3.216000,1524647501000
Fix,gps,48.340955,15.680151,405.544189,13.160000,3.216000,1524647502000
Fix,gps,48.340907,15.680001,405.280396,12.610000,3.216000,1524647503000
Fix,gps,48.340844,15.679863,405.314087,12.450000,4.288000,1524647504000
Fix,gps,48.340764,15.679746,405.925293,12.340000,3.216000,1524647505000
Fix,gps,48.340672,15.679654,406.019287,12.430000,3.216000,1524647506000
Fix,gps,48.340568,15.679571,405.681274,12.710000,3.216000,1524647507000
Fix,gps,48.340458,15.679504,405.982422,12.740000,3.216000,1524647508000
Fix,gps,48.340351,15.679450,406.036499,12.740000,3.216000,1524647509000
Fix,gps,48.340243,15.679401,406.169434,12.410000,3.216000,1524647510000
Fix,gps,48.340134,15.679362,406.537109,12.130000,3.216000,1524647511000
Fix,gps,48.340030,15.679320,406.765503,11.730000,3.216000,1524647512000
Fix,gps,48.339926,15.679270,406.787354,11.360000,3.216000,1524647513000
Fix,gps,48.339839,15.679199,407.312866,10.740000,3.216000,1524647514000
Fix,gps,48.339769,15.679103,407.383240,10.540000,3.216000,1524647515000
Fix,gps,48.339714,15.678988,407.012085,10.340000,3.216000,1524647516000
Fix,gps,48.339669,15.678869,406.979126,9.910000,3.216000,1524647517000
Fix,gps,48.339629,15.678755,407.473633,9.470000,3.216000,1524647518000
Fix,gps,48.339594,15.678637,407.995178,9.250000,3.216000,1524647519000
Fix,gps,48.339571,15.678538,407.850952,7.820000,3.216000,1524647520000
Fix,gps,48.339564,15.678447,407.738770,6.430000,4.288000,1524647521000
Fix,gps,48.339581,15.678375,407.822815,5.570000,3.216000,1524647522000
Fix,gps,48.339614,15.678323,408.027344,5.640000,3.216000,1524647523000
Fix,gps,48.339661,15.678288,407.719849,5.940000,3.216000,1524647524000
Fix,gps,48.339717,15.678256,407.525269,6.550000,3.216000,1524647525000
Fix,gps,48.339789,15.678237,407.395996,7.450000,3.216000,1524647526000
Fix,gps,48.339847,15.678190,407.364380,7.800000,3.216000,1524647527000
Fix,gps,48.339905,15.678124,407.251099,8.120000,4.288000,1524647528000
Fix,gps,48.339957,15.678040,408.160522,8.480000,4.288000,1524647529000
Fix,gps,48.340007,15.677937,408.187805,9.360000,4.288000,1524647530000
Fix,gps,48.340046,15.677814,408.544922,9.990000,4.288000,1524647531000
Fix,gps,48.340084,15.677682,408.687988,10.280000,4.288000,1524647532000
Fix,gps,48.340111,15.677551,407.670044,10.430000,3.216000,1524647533000
Fix,gps,48.340141,15.677422,408.063232,10.570000,3.216000,1524647534000
Fix,gps,48.340169,15.677283,408.284668,10.870000,3.216000,1524647535000
Fix,gps,48.340199,15.677141,408.496704,11.000000,3.216000,1524647536000
Fix,gps,48.340223,15.676998,408.553833,10.850000,3.216000,1524647537000
Fix,gps,48.340244,15.676851,408.533203,10.830000,3.216000,1524647538000
Fix,gps,48.340254,15.676707,408.844666,10.980000,3.216000,1524647539000
Fix,gps,48.340265,15.676556,409.375488,11.090000,3.216000,1524647540000
Fix,gps,48.340291,15.676411,409.697510,11.270000,3.216000,1524647541000
Fix,gps,48.340336,15.676270,410.045288,11.620000,3.216000,1524647542000
Fix,gps,48.340387,15.676133,410.382751,12.080000,3.216000,1524647543000
Fix,gps,48.340435,15.675978,411.062988,12.580000,3.216000,1524647544000
Fix,gps,48.340471,15.675813,411.054688,12.950000,3.216000,1524647545000
Fix,gps,48.340492,15.675636,411.373047,13.230000,3.216000,1524647546000
Fix,gps,48.340494,15.675455,412.069824,13.720000,3.216000,1524647547000
Fix,gps,48.340484,15.675260,413.315735,14.320000,3.216000,1524647548000
Fix,gps,48.340463,15.675065,414.113464,14.980000,3.216000,1524647549000
Fix,gps,48.340450,15.674852,414.705261,16.500000,3.216000,1524647550000
Fix,gps,48.340450,15.674618,415.173523,18.139999,3.216000,1524647551000
Fix,gps,48.340465,15.674364,415.941467,19.610001,3.216000,1524647552000
Fix,gps,48.340492,15.674087,417.281250,20.940001,3.216000,1524647553000
Fix,gps,48.340524,15.673811,418.645569,20.920000,3.216000,1524647554000
Fix,gps,48.340556,15.673536,419.899292,20.730000,3.216000,1524647555000
Fix,gps,48.340589,15.673260,421.277588,20.809999,3.216000,1524647556000
Fix,gps,48.340623,15.672982,422.380127,20.920000,3.216000,1524647557000
Fix,gps,48.340656,15.672701,423.324768,21.420000,3.216000,1524647558000
Fix,gps,48.340689,15.672413,423.866028,22.139999,3.216000,1524647559000
Fix,gps,48.340723,15.672120,424.989868,23.330000,3.216000,1524647560000
Fix,gps,48.340758,15.671790,426.041260,24.340000,3.216000,1524647561000
Fix,gps,48.340787,15.671456,427.393494,25.010000,3.216000,1524647562000
Fix,gps,48.340805,15.671111,426.911377,26.070000,3.216000,1524647563000
Fix,gps,48.340817,15.670740,428.200684,27.129999,3.216000,1524647564000
Fix,gps,48.340816,15.670367,429.667725,28.059999,3.216000,1524647565000
Fix,gps,48.340799,15.669980,430.978760,28.860001,3.216000,1524647566000
Fix,gps,48.340776,15.669594,432.819214,29.639999,3.216000,1524647567000
Fix,gps,48.340752,15.669189,434.706116,30.440001,3.216000,1524647568000
Fix,gps,48.340725,15.668766,435.860901,30.910000,3.216000,1524647569000
Fix,gps,48.340708,15.668357,436.754761,30.250000,3.216000,1524647570000
Fix,gps,48.340692,15.667969,437.516968,29.120001,3.216000,1524647571000
Fix,gps,48.340678,15.667570,438.195618,27.549999,3.216000,1524647572000
Fix,gps,48.340667,15.667223,439.397217,25.730000,3.216000,1524647573000
Fix,gps,48.340660,15.666896,440.651978,23.400000,3.216000,1524647574000
Fix,gps,48.340653,15.666600,441.456665,21.320000,3.216000,1524647575000
Fix,gps,48.340650,15.666325,442.705017,19.340000,3.216000,1524647576000
Fix,gps,48.340652,15.666077,443.550659,17.120001,3.216000,1524647577000
Fix,gps,48.340657,15.665866,444.134888,15.560000,3.216000,1524647578000
Fix,gps,48.340663,15.665681,444.688965,13.040000,3.216000,1524647579000
Fix,gps,48.340672,15.665519,445.033691,10.970000,3.216000,1524647580000
Fix,gps,48.340680,15.665393,445.463257,8.910000,3.216000,1524647581000
Fix,gps,48.340686,15.665300,445.620728,6.560000,3.216000,1524647582000
Fix,gps,48.340680,15.665223,445.651001,5.460000,3.216000,1524647583000
Fix,gps,48.340658,15.665155,445.867554,5.920000,3.216000,1524647584000
Fix,gps,48.340618,15.665090,446.086365,6.640000,3.216000,1524647585000
Fix,gps,48.340576,15.665022,446.901001,7.490000,3.216000,1524647586000
Fix,gps,48.340525,15.664942,447.538879,8.150000,3.216000,1524647587000
Fix,gps,48.340470,15.664852,448.276672,8.780000,3.216000,1524647588000
Fix,gps,48.340417,15.664765,449.010071,9.030000,4.288000,1524647589000
Fix,gps,48.340361,15.664680,450.313538,9.030000,4.288000,1524647590000
Fix,gps,48.340306,15.664585,451.641357,9.360000,4.288000,1524647591000
Fix,gps,48.340260,15.664498,453.269043,9.130000,4.288000,1524647592000
Fix,gps,48.340208,15.664404,454.893799,9.150000,5.360000,1524647593000
Fix,gps,48.340158,15.664307,456.096069,9.050000,5.360000,1524647594000
Fix,gps,48.340109,15.664201,457.174316,9.280000,5.360000,1524647595000
Fix,gps,48.340061,15.664073,457.985107,9.920000,5.360000,1524647596000
Fix,gps,48.340015,15.663946,458.513672,10.410000,5.360000,1524647597000
Fix,gps,48.339973,15.663816,459.766235,10.740000,5.360000,1524647598000
Fix,gps,48.339930,15.663685,461.286865,11.030000,5.360000,1524647599000
Fix,gps,48.339882,15.663553,462.954590,11.050000,5.360000,1524647600000
Fix,gps,48.339831,15.663419,464.598755,11.030000,5.360000,1524647601000
Fix,gps,48.339781,15.663303,467.072266,10.580000,6.432000,1524647602000
Fix,gps,48.339735,15.663184,469.282349,10.350000,6.432000,1524647603000
Fix,gps,48.339696,15.663078,471.241699,9.700000,6.432000,1524647604000
Fix,gps,48.339662,15.662980,472.966064,9.110000,6.432000,1524647605000
Fix,gps,48.339608,15.662852,473.858643,9.390000,6.432000,1524647606000
Fix,gps,48.339567,15.662740,473.984131,9.370000,7.504000,1524647607000
Fix,gps,48.339533,15.662621,473.789185,9.370000,7.504000,1524647608000
Fix,gps,48.339488,15.662505,475.281616,9.720000,7.504000,1524647609000
Fix,gps,48.339440,15.662399,476.123413,9.700000,7.504000,1524647610000
Fix,gps,48.339387,15.662302,475.837463,9.460000,8.576000,1524647611000
Fix,gps,48.339341,15.662217,476.238647,8.880000,8.576000,1524647612000
Fix,gps,48.339289,15.662112,477.410217,8.810000,9.648001,1524647613000
Fix,gps,48.339246,15.662008,478.346497,8.760000,10.720000,1524647614000
Fix,gps,48.339209,15.661901,478.885498,8.450000,8.576000,1524647615000
Fix,gps,48.339175,15.661778,479.711304,9.080000,9.648001,1524647616000
Fix,gps,48.339142,15.661654,481.151062,9.360000,9.648001,1524647617000
Fix,gps,48.339109,15.661525,481.075073,9.620000,10.720000,1524647618000
Fix,gps,48.339077,15.661394,483.042114,9.780000,11.792000,1524647619000
Fix,gps,48.339045,15.661262,484.087402,9.800000,11.792000,1524647620000
Fix,gps,48.339016,15.661134,484.942383,9.840000,12.864000,1524647621000
Fix,gps,48.338983,15.660994,484.683838,10.180000,13.936001,1524647622000
Fix,gps,48.338935,15.660854,485.144287,10.000000,12.864000,1524647623000
Fix,gps,48.338888,15.660714,486.983521,9.820000,11.792000,1524647624000
Fix,gps,48.338853,15.660591,487.480469,9.580000,8.576000,1524647625000
Fix,gps,48.338817,15.660487,488.139343,8.940000,8.576000,1524647626000
Fix,gps,48.338787,15.660397,489.078491,7.810000,8.576000,1524647627000
Fix,gps,48.338738,15.660292,488.854858,7.130000,7.504000,1524647628000
Fix,gps,48.338701,15.660201,488.950439,6.490000,6.432000,1524647629000
Fix,gps,48.338666,15.660125,486.851379,5.750000,5.360000,1524647630000
Fix,gps,48.338635,15.660057,486.388550,5.200000,5.360000,1524647631000
Fix,gps,48.338599,15.659986,483.143433,5.040000,4.288000,1524647632000
Fix,gps,48.338577,15.659929,483.047974,4.760000,4.288000,1524647633000
Fix,gps,48.338549,15.659865,481.891235,4.570000,4.288000,1524647634000
Fix,gps,48.338521,15.659813,481.407471,4.160000,4.288000,1524647635000
Fix,gps,48.338492,15.659759,481.646790,3.880000,4.288000,1524647636000
Fix,gps,48.338468,15.659708,481.878906,3.860000,4.288000,1524647637000
Fix,gps,48.338441,15.659661,480.276001,3.640000,4.288000,1524647638000
Fix,gps,48.338405,15.659602,479.477844,4.170000,4.288000,1524647639000
Fix,gps,48.338376,15.659548,478.493774,4.500000,4.288000,1524647640000
Fix,gps,48.338335,15.659475,479.224243,5.230000,4.288000,1524647641000
Fix,gps,48.338302,15.659417,479.702026,5.440000,4.288000,1524647642000
Fix,gps,48.338272,15.659362,479.476196,5.590000,4.288000,1524647643000
Fix,gps,48.338237,15.659299,478.969299,5.880000,5.360000,1524647644000
Fix,gps,48.338195,15.659233,478.289795,6.230000,5.360000,1524647645000
Fix,gps,48.338158,15.659163,477.282104,6.630000,6.432000,1524647646000
Fix,gps,48.338113,15.659093,477.193909,7.080000,6.432000,1524647647000
Fix,gps,48.338069,15.659024,475.717163,7.330000,7.504000,1524647648000
Fix,gps,48.338023,15.658959,475.950684,7.550000,7.504000,1524647649000
Fix,gps,48.337974,15.658872,474.887085,8.200000,7.504000,1524647650000
Fix,gps,48.337930,15.658788,475.269226,8.210000,8.576000,1524647651000
Fix,gps,48.337857,15.658702,474.289551,8.570000,7.504000,1524647652000
Fix,gps,48.337805,15.658609,473.122925,8.790000,6.432000,1524647653000
Fix,gps,48.337754,15.658527,471.544189,8.740000,6.432000,1524647654000
Fix,gps,48.337693,15.658425,472.551392,8.900000,5.360000,1524647655000
Fix,gps,48.337645,15.658318,471.410217,8.990000,5.360000,1524647656000
Fix,gps,48.337603,15.658202,470.087769,9.250000,4.288000,1524647657000
Fix,gps,48.337574,15.658081,467.961914,9.240000,4.288000,1524647658000
Fix,gps,48.337556,15.657956,467.380615,9.010000,5.360000,1524647659000
Fix,gps,48.337540,15.657831,463.124146,7.990000,4.288000,1524647660000
Fix,gps,48.337540,15.657750,463.688965,6.140000,4.288000,1524647661000
Fix,gps,48.337539,15.657669,463.769653,5.350000,9.648001,1524647662000
Fix,gps,48.337538,15.657591,461.536865,5.490000,4.288000,1524647663000
Fix,gps,48.337540,15.657513,460.889160,5.700000,4.288000,1524647664000
Fix,gps,48.337541,15.657430,461.044678,5.820000,5.360000,1524647665000
Fix,gps,48.337543,15.657342,460.475586,6.110000,10.720000,1524647666000
Fix,gps,48.337544,15.657262,459.538940,6.130000,10.720000,1524647667000
Fix,gps,48.337547,15.657169,458.921143,6.320000,10.720000,1524647668000
Fix,gps,48.337548,15.657079,459.073853,6.360000,11.792000,1524647669000
Fix,gps,48.337545,15.656981,457.656921,6.380000,11.792000,1524647670000
Fix,gps,48.337543,15.656871,458.334351,6.530000,11.792000,1524647671000
Fix,gps,48.337534,15.656777,458.783447,6.580000,10.720000,1524647672000
Fix,gps,48.337526,15.656683,458.471069,6.690000,10.720000,1524647673000
Fix,gps,48.337512,15.656583,457.263794,6.770000,10.720000,1524647674000
Fix,gps,48.337498,15.656495,455.516846,6.800000,9.648001,1524647675000
Fix,gps,48.337477,15.656386,453.879883,6.910000,9.648001,1524647676000
Fix,gps,48.337458,15.656282,453.590027,7.020000,5.360000,1524647677000
Fix,gps,48.337446,15.656190,453.890259,6.690000,4.288000,1524647678000
Fix,gps,48.337434,15.656085,453.918518,6.830000,4.288000,1524647679000
Fix,gps,48.337430,15.655991,453.435547,6.660000,4.288000,1524647680000
Fix,gps,48.337418,15.655875,454.255066,7.030000,4.288000,1524647681000
Fix,gps,48.337409,15.655758,455.169434,7.210000,4.288000,1524647682000
Fix,gps,48.337400,15.655675,457.244446,6.740000,3.216000,1524647683000
Fix,gps,48.337382,15.655573,455.458435,6.770000,3.216000,1524647684000
Fix,gps,48.337377,15.655482,454.990479,6.740000,3.216000,1524647685000
Fix,gps,48.337376,15.655393,454.316895,6.830000,3.216000,1524647686000
Fix,gps,48.337374,15.655295,454.178833,6.970000,3.216000,1524647687000
Fix,gps,48.337372,15.655197,454.192139,7.120000,3.216000,1524647688000
Fix,gps,48.337369,15.655092,453.799622,7.190000,3.216000,1524647689000
Fix,gps,48.337366,15.654988,453.910706,7.140000,3.216000,1524647690000
Fix,gps,48.337365,15.654893,453.517334,7.030000,3.216000,1524647691000
Fix,gps,48.337362,15.654787,453.312927,6.990000,3.216000,1524647692000
Fix,gps,48.337360,15.654692,453.059448,6.910000,3.216000,1524647693000
Fix,gps,48.337363,15.654601,452.517090,6.820000,3.216000,1524647694000
Fix,gps,48.337371,15.654510,451.072632,6.710000,3.216000,1524647695000
Fix,gps,48.337370,15.654416,450.840332,6.570000,3.216000,1524647696000
Fix,gps,48.337370,15.654321,450.675903,6.450000,3.216000,1524647697000
Fix,gps,48.337367,15.654236,450.817261,6.260000,3.216000,1524647698000
Fix,gps,48.337363,15.654153,450.766724,6.390000,3.216000,1524647699000
Fix,gps,48.337359,15.654063,450.475769,6.780000,3.216000,1524647700000
Fix,gps,48.337354,15.653953,449.774536,7.480000,3.216000,1524647701000
Fix,gps,48.337348,15.653848,449.307434,7.960000,3.216000,1524647702000
Fix,gps,48.337339,15.653734,448.862915,8.620000,3.216000,1524647703000
Fix,gps,48.337337,15.653614,448.604004,9.090000,3.216000,1524647704000
Fix,gps,48.337344,15.653482,447.970215,9.370000,3.216000,1524647705000
Fix,gps,48.337370,15.653361,447.982910,9.470000,3.216000,1524647706000
Fix,gps,48.337409,15.653242,448.223572,9.730000,3.216000,1524647707000
Fix,gps,48.337463,15.653134,448.423340,9.870000,3.216000,1524647708000
Fix,gps,48.337526,15.653037,448.391907,10.130000,3.216000,1524647709000
Fix,gps,48.337591,15.652941,448.279724,10.070000,3.216000,1524647710000
Fix,gps,48.337656,15.652851,447.878174,9.760000,3.216000,1524647711000
Fix,gps,48.337722,15.652764,447.171143,9.650000,3.216000,1524647712000
Fix,gps,48.337784,15.652666,446.705811,9.790000,3.216000,1524647713000
Fix,gps,48.337850,15.652572,446.326721,10.130000,3.216000,1524647714000
Fix,gps,48.337913,15.652472,445.326050,10.380000,3.216000,1524647715000
Fix,gps,48.337981,15.652365,444.973328,10.450000,3.216000,1524647716000
Fix,gps,48.338041,15.652263,444.131958,10.350000,3.216000,1524647717000
Fix,gps,48.338098,15.652154,443.906860,10.400000,3.216000,1524647718000
Fix,gps,48.338150,15.652039,443.571533,10.580000,3.216000,1524647719000
Fix,gps,48.338201,15.651916,442.669983,11.030000,3.216000,1524647720000
Fix,gps,48.338249,15.651772,442.463440,11.590000,3.216000,1524647721000
Fix,gps,48.338296,15.651633,442.109253,12.190000,3.216000,1524647722000
Fix,gps,48.338345,15.651477,441.828064,13.140000,3.216000,1524647723000
Fix,gps,48.338404,15.651304,440.878540,14.720000,3.216000,1524647724000
Fix,gps,48.338465,15.651108,439.855713,16.670000,3.216000,1524647725000
Fix,gps,48.338534,15.650897,438.858521,18.180000,3.216000,1524647726000
Fix,gps,48.338609,15.650655,437.535400,20.370001,3.216000,1524647727000
Fix,gps,48.338691,15.650393,436.634094,22.420000,3.216000,1524647728000
Fix,gps,48.338783,15.650087,435.562866,24.780001,3.216000,1524647729000
Fix,gps,48.338877,15.649770,434.582153,26.160000,3.216000,1524647730000
Fix,gps,48.338978,15.649425,433.980225,28.209999,3.216000,1524647731000
Fix,gps,48.339077,15.649059,433.113586,29.700001,3.216000,1524647732000
Fix,gps,48.339176,15.648670,431.995728,31.129999,3.216000,1524647733000
Fix,gps,48.339275,15.648280,431.300171,31.180000,3.216000,1524647734000
Fix,gps,48.339369,15.647906,430.667358,29.459999,3.216000,1524647735000
Fix,gps,48.339462,15.647565,430.762451,26.820000,3.216000,1524647736000
Fix,gps,48.339554,15.647244,430.394104,24.040001,3.216000,1524647737000
Fix,gps,48.339633,15.646980,430.328613,20.850000,3.216000,1524647738000
Fix,gps,48.339704,15.646759,430.110962,17.520000,3.216000,1524647739000
Fix,gps,48.339771,15.646565,430.045898,14.440000,3.216000,1524647740000
Fix,gps,48.339843,15.646421,430.050049,13.280000,3.216000,1524647741000
Fix,gps,48.339928,15.646305,430.174438,12.900000,4.288000,1524647742000
Fix,gps,48.340031,15.646230,429.800049,12.700000,3.216000,1524647743000
Fix,gps,48.340143,15.646195,429.332214,13.180000,3.216000,1524647744000
Fix,gps,48.340263,15.646170,428.913696,13.420000,3.216000,1524647745000
Fix,gps,48.340385,15.646146,428.031616,13.480000,3.216000,1524647746000
Fix,gps,48.340499,15.646087,427.781067,13.270000,3.216000,1524647747000
Fix,gps,48.340609,15.646008,427.154053,13.210000,3.216000,1524647748000
Fix,gps,48.340709,15.645914,426.889709,13.480000,3.216000,1524647749000
Fix,gps,48.340810,15.645817,426.322998,13.420000,3.216000,1524647750000
Fix,gps,48.340912,15.645718,426.278198,13.390000,3.216000,1524647751000
Fix,gps,48.341014,15.645623,425.490723,13.420000,3.216000,1524647752000
Fix,gps,48.341120,15.645529,424.768799,13.370000,3.216000,1524647753000
Fix,gps,48.341231,15.645461,424.217712,13.440000,3.216000,1524647754000
Fix,gps,48.341342,15.645422,423.742676,13.380000,3.216000,1524647755000
Fix,gps,48.341463,15.645412,423.207947,13.370000,3.216000,1524647756000
Fix,gps,48.341586,15.645427,422.303711,13.540000,3.216000,1524647757000
Fix,gps,48.341703,15.645447,422.050171,13.670000,3.216000,1524647758000
Fix,gps,48.341824,15.645472,421.031677,13.930000,3.216000,1524647759000
Fix,gps,48.341949,15.645489,420.403198,14.160000,3.216000,1524647760000
Fix,gps,48.342084,15.645495,419.051941,14.400000,3.216000,1524647761000
Fix,gps,48.342215,15.645486,417.628052,14.830000,3.216000,1524647762000
Fix,gps,48.342350,15.645464,415.976624,15.230000,3.216000,1524647763000
Fix,gps,48.342490,15.645430,414.322754,15.310000,3.216000,1524647764000
Fix,gps,48.342625,15.645390,412.657043,15.160000,3.216000,1524647765000
Fix,gps,48.342748,15.645344,411.084473,14.290000,3.216000,1524647766000
Fix,gps,48.342869,15.645281,409.929016,14.040000,3.216000,1524647767000
Fix,gps,48.342990,15.645190,408.945435,14.420000,3.216000,1524647768000
Fix,gps,48.343103,15.645078,407.926270,14.530000,3.216000,1524647769000
Fix,gps,48.343206,15.644955,407.287720,14.750000,3.216000,1524647770000
Fix,gps,48.343299,15.644821,405.774658,15.040000,3.216000,1524647771000
Fix,gps,48.343398,15.644668,404.828979,15.210000,3.216000,1524647772000
Fix,gps,48.343489,15.644512,403.681641,15.500000,3.216000,1524647773000
Fix,gps,48.343577,15.644353,402.592529,15.670000,3.216000,1524647774000
Fix,gps,48.343664,15.644192,401.334229,15.710000,3.216000,1524647775000
Fix,gps,48.343753,15.644027,400.280823,15.840000,3.216000,1524647776000
Fix,gps,48.343841,15.643853,399.308472,15.950000,3.216000,1524647777000
Fix,gps,48.343925,15.643673,398.718994,16.100000,3.216000,1524647778000
Fix,gps,48.344006,15.643497,398.122681,16.250000,3.216000,1524647779000
Fix,gps,48.344088,15.643307,397.338684,16.379999,3.216000,1524647780000
Fix,gps,48.344167,15.643119,396.280273,16.459999,3.216000,1524647781000
Fix,gps,48.344252,15.642935,396.075806,16.520000,4.288000,1524647782000
Fix,gps,48.344336,15.642761,395.712646,16.510000,4.288000,1524647783000
Fix,gps,48.344424,15.642584,394.086182,16.510000,3.216000,1524647784000
Fix,gps,48.344519,15.642411,393.201538,16.500000,3.216000,1524647785000
Fix,gps,48.344617,15.642240,392.354980,16.480000,3.216000,1524647786000
Fix,gps,48.344708,15.642075,391.600342,16.379999,3.216000,1524647787000
Fix,gps,48.344807,15.641903,390.798950,16.360001,3.216000,1524647788000
Fix,gps,48.344905,15.641736,389.912659,16.350000,3.216000,1524647789000
Fix,gps,48.344996,15.641573,389.092529,16.309999,3.216000,1524647790000
Fix,gps,48.345092,15.641401,387.817627,16.370001,3.216000,1524647791000
Fix,gps,48.345181,15.641235,386.587036,16.290001,3.216000,1524647792000
Fix,gps,48.345272,15.641061,385.559326,16.260000,3.216000,1524647793000
Fix,gps,48.345360,15.640889,384.579590,16.150000,3.216000,1524647794000
Fix,gps,48.345442,15.640722,382.729248,15.160000,3.216000,1524647795000
Fix,gps,48.345511,15.640575,383.511353,15.040000,3.216000,1524647796000
Fix,gps,48.345594,15.640418,382.855469,14.890000,3.216000,1524647797000
Fix,gps,48.345674,15.640275,383.118530,13.580000,3.216000,1524647798000
Fix,gps,48.345741,15.640154,382.115723,12.180000,3.216000,1524647799000
Fix,gps,48.345827,15.640022,382.912720,12.080000,3.216000,1524647800000
Fix,gps,48.345913,15.639889,382.789551,11.340000,3.216000,1524647801000
Fix,gps,48.345984,15.639771,382.443848,11.900000,3.216000,1524647802000
Fix,gps,48.346074,15.639668,382.323730,11.600000,4.288000,1524647803000
Fix,gps,48.346157,15.639582,381.941650,11.290000,3.216000,1524647804000
Fix,gps,48.346245,15.639504,381.941406,11.290000,3.216000,1524647805000
Fix,gps,48.346335,15.639465,382.808044,10.270000,3.216000,1524647806000
Fix,gps,48.346428,15.639396,380.875793,9.990000,3.216000,1524647807000
Fix,gps,48.346520,15.639346,380.327087,9.650000,3.216000,1524647808000
Fix,gps,48.346603,15.639313,380.992859,9.470000,3.216000,1524647809000
Fix,gps,48.346678,15.639278,380.236206,9.140000,3.216000,1524647810000
Fix,gps,48.346749,15.639255,379.673706,8.000000,3.216000,1524647811000
Fix,gps,48.346817,15.639248,379.669434,6.740000,3.216000,1524647812000
Fix,gps,48.346862,15.639238,379.654297,5.170000,3.216000,1524647813000
Fix,gps,48.346901,15.639243,379.249023,3.890000,3.216000,1524647814000
Fix,gps,48.346930,15.639249,379.108276,2.760000,3.216000,1524647815000
Fix,gps,48.346939,15.639243,379.297546,1.260000,3.216000,1524647816000
Fix,gps,48.346947,15.639240,379.518616,0.990000,3.216000,1524647817000
Fix,gps,48.346953,15.639227,379.270142,1.350000,3.216000,1524647818000
Fix,gps,48.346964,15.639208,379.357239,2.370000,3.216000,1524647819000
Fix,gps,48.346968,15.639168,379.245483,3.290000,3.216000,1524647820000
Fix,gps,48.346956,15.639121,379.985229,3.750000,3.216000,1524647821000
Fix,gps,48.346912,15.639037,378.615906,6.450000,3.216000,1524647822000
Fix,gps,48.346876,15.638940,379.722961,9.540000,3.216000,1524647823000
Fix,gps,48.346825,15.638808,379.470459,12.020000,3.216000,1524647824000
Fix,gps,48.346754,15.638645,378.343140,14.990000,3.216000,1524647825000
Fix,gps,48.346672,15.638439,376.964111,17.959999,3.216000,1524647826000
Fix,gps,48.346580,15.638190,375.123474,20.340000,3.216000,1524647827000
Fix,gps,48.346467,15.637933,374.028748,23.010000,3.216000,1524647828000
Fix,gps,48.346353,15.637654,373.231812,23.980000,3.216000,1524647829000
Fix,gps,48.346215,15.637374,372.453064,25.459999,3.216000,1524647830000
Fix,gps,48.346056,15.637083,372.319946,27.190001,3.216000,1524647831000
Fix,gps,48.345902,15.636768,371.848633,28.610001,3.216000,1524647832000
Fix,gps,48.345756,15.636426,371.274231,29.719999,3.216000,1524647833000
Fix,gps,48.345612,15.636069,371.089111,30.690001,3.216000,1524647834000
Fix,gps,48.345466,15.635700,369.901733,31.559999,3.216000,1524647835000
Fix,gps,48.345316,15.635327,369.208496,31.950001,3.216000,1524647836000
Fix,gps,48.345160,15.634986,368.997559,29.400000,3.216000,1524647837000
Fix,gps,48.345040,15.634642,369.077087,28.750000,3.216000,1524647838000
Fix,gps,48.344937,15.634314,369.451904,27.370001,3.216000,1524647839000
Fix,gps,48.344794,15.634069,369.520264,25.100000,3.216000,1524647840000
Fix,gps,48.344618,15.633738,320.932739,23.080000,3.216000,1524647841000
Fix,gps,48.344506,15.633503,320.635986,21.209999,3.216000,1524647842000
Fix,gps,48.344396,15.633280,320.836060,20.450001,3.216000,1524647843000
Fix,gps,48.344288,15.633080,320.359436,18.860001,3.216000,1524647844000
Fix,gps,48.344183,15.632916,323.202271,17.389999,3.216000,1524647845000
Fix,gps,48.344077,15.632775,326.089478,16.820000,4.288000,1524647846000
Fix,gps,48.343953,15.632646,325.653381,17.030001,3.216000,1524647847000
Fix,gps,48.343818,15.632532,325.343750,18.010000,3.216000,1524647848000
Fix,gps,48.343659,15.632433,325.122803,19.209999,3.216000,1524647849000
Fix,gps,48.343483,15.632343,324.930603,20.290001,4.288000,1524647850000
Fix,gps,48.343306,15.632266,323.743286,21.139999,3.216000,1524647851000
Fix,gps,48.343119,15.632184,323.237183,21.299999,3.216000,1524647852000
Fix,gps,48.342936,15.632111,322.787170,21.330000,3.216000,1524647853000
Fix,gps,48.342754,15.632044,322.291748,21.299999,3.216000,1524647854000
Fix,gps,48.342576,15.631987,321.976196,20.270000,3.216000,1524647855000
Fix,gps,48.342399,15.631945,321.436768,19.670000,3.216000,1524647856000
Fix,gps,48.342217,15.631932,320.581055,19.709999,3.216000,1524647857000
Fix,gps,48.342037,15.631951,319.509949,20.590000,3.216000,1524647858000
Fix,gps,48.341854,15.632002,318.535645,21.850000,3.216000,1524647859000
Fix,gps,48.341644,15.632076,317.254028,23.650000,3.216000,1524647860000
Fix,gps,48.341440,15.632158,315.891602,24.280001,3.216000,1524647861000
Fix,gps,48.341233,15.632252,314.208313,24.559999,3.216000,1524647862000
Fix,gps,48.341022,15.632351,313.275879,24.820000,3.216000,1524647863000
Fix,gps,48.340814,15.632451,312.547607,24.959999,3.216000,1524647864000
Fix,gps,48.340588,15.632538,311.811646,25.040001,3.216000,1524647865000
Fix,gps,48.340367,15.632601,310.840576,25.040001,3.216000,1524647866000
Fix,gps,48.340145,15.632636,309.916260,25.010000,3.216000,1524647867000
Fix,gps,48.339911,15.632637,308.462463,24.940001,3.216000,1524647868000
Fix,gps,48.339696,15.632630,308.623047,24.830000,3.216000,1524647869000
Fix,gps,48.339478,15.632617,308.227539,24.750000,3.216000,1524647870000
Fix,gps,48.339255,15.632599,307.878235,24.660000,3.216000,1524647871000
Fix,gps,48.339044,15.632581,307.613892,23.709999,3.216000,1524647872000
Fix,gps,48.338835,15.632560,306.998535,22.309999,3.216000,1524647873000
Fix,gps,48.338655,15.632537,306.489136,20.379999,3.216000,1524647874000
Fix,gps,48.338482,15.632511,305.855347,18.750000,3.216000,1524647875000
Fix,gps,48.338317,15.632469,306.153748,17.959999,3.216000,1524647876000
Fix,gps,48.338165,15.632398,306.034607,17.969999,3.216000,1524647877000
Fix,gps,48.338016,15.632290,305.799194,18.219999,3.216000,1524647878000
Fix,gps,48.337881,15.632160,306.402710,18.459999,3.216000,1524647879000
Fix,gps,48.337754,15.632022,306.383057,18.580000,3.216000,1524647880000
Fix,gps,48.337614,15.631873,306.598511,18.450001,3.216000,1524647881000
Fix,gps,48.337486,15.631731,306.592407,18.280001,3.216000,1524647882000
Fix,gps,48.337355,15.631589,306.076721,18.100000,3.216000,1524647883000
Fix,gps,48.337219,15.631445,306.091064,17.950001,3.216000,1524647884000
Fix,gps,48.337088,15.631306,305.668213,17.790001,3.216000,1524647885000
Fix,gps,48.336969,15.631158,305.717896,17.700001,3.216000,1524647886000
Fix,gps,48.336860,15.630991,305.633911,17.520000,3.216000,1524647887000
Fix,gps,48.336771,15.630793,305.812073,17.299999,3.216000,1524647888000
Fix,gps,48.336707,15.630580,305.796265,16.959999,3.216000,1524647889000
Fix,gps,48.336669,15.630364,305.691528,16.840000,3.216000,1524647890000
Fix,gps,48.336636,15.630147,305.118408,16.639999,3.216000,1524647891000
Fix,gps,48.336600,15.629929,304.848145,16.320000,3.216000,1524647892000
Fix,gps,48.336565,15.629723,304.774902,15.640000,3.216000,1524647893000
Fix,gps,48.336517,15.629535,305.193604,14.700000,3.216000,1524647894000
Fix,gps,48.336459,15.629369,304.460510,13.960000,3.216000,1524647895000
Fix,gps,48.336384,15.629219,304.463135,13.690000,3.216000,1524647896000
Fix,gps,48.336300,15.629092,304.528992,13.330000,3.216000,1524647897000
Fix,gps,48.336204,15.628987,304.845215,13.200000,3.216000,1524647898000
Fix,gps,48.336101,15.628895,305.002930,13.350000,3.216000,1524647899000
Fix,gps,48.335991,15.628800,305.147827,13.440000,3.216000,1524647900000
Fix,gps,48.335891,15.628711,305.256104,13.440000,3.216000,1524647901000
Fix,gps,48.335788,15.628615,305.366943,13.300000,3.216000,1524647902000
Fix,gps,48.335693,15.628515,304.856079,13.050000,3.216000,1524647903000
Fix,gps,48.335601,15.628409,305.315063,12.840000,3.216000,1524647904000
Fix,gps,48.335514,15.628298,305.072510,12.500000,3.216000,1524647905000
Fix,gps,48.335435,15.628196,304.870605,11.830000,3.216000,1524647906000
Fix,gps,48.335362,15.628099,304.771118,10.380000,3.216000,1524647907000
Fix,gps,48.335297,15.628010,304.891907,8.820000,3.216000,1524647908000
Fix,gps,48.335255,15.627930,304.956543,7.090000,3.216000,1524647909000
Fix,gps,48.335226,15.627868,305.128052,5.380000,3.216000,1524647910000
Fix,gps,48.335202,15.627834,305.601318,3.170000,3.216000,1524647911000
Fix,gps,48.335191,15.627821,305.665405,0.910000,3.216000,1524647912000
Fix,gps,48.335188,15.627818,305.817444,0.000000,3.216000,1524647913000
Fix,gps,48.335188,15.627819,305.751831,0.000000,3.216000,1524647914000
Fix,gps,48.335186,15.627818,305.739380,0.000000,3.216000,1524647915000
Fix,gps,48.335186,15.627818,305.697815,0.000000,3.216000,1524647916000
Fix,gps,48.335184,15.627819,306.289063,0.180000,3.216000,1524647917000
Fix,gps,48.335183,15.627819,306.337891,0.200000,3.216000,1524647918000
Fix,gps,48.335182,15.627818,305.944580,0.000000,3.216000,1524647919000
Fix,gps,48.335184,15.627816,305.859009,0.000000,3.216000,1524647920000
Fix,gps,48.335184,15.627816,305.967896,0.000000,4.288000,1524647921000
Fix,gps,48.335184,15.627816,305.868286,0.000000,4.288000,1524647922000
Fix,gps,48.335185,15.627816,305.620728,0.000000,3.216000,1524647923000
Fix,gps,48.335185,15.627814,305.617188,0.000000,3.216000,1524647924000
Fix,gps,48.335185,15.627815,305.570068,0.000000,4.288000,1524647925000
Fix,gps,48.335186,15.627816,305.603027,0.000000,3.216000,1524647926000
Fix,gps,48.335187,15.627816,305.583313,0.000000,3.216000,1524647927000
Fix,gps,48.335193,15.627823,304.709717,0.810000,3.216000,1524647928000
Fix,gps,48.335190,15.627820,304.240845,0.840000,4.288000,1524647929000
