# 
# Header Description:
# 
# Version: v2.0.0.1 Platform: 8.1.0 Manufacturer: Google Model: Pixel 2
# 
# Raw,ElapsedRealtimeMillis,TimeNanos,LeapSecond,TimeUncertaintyNanos,FullBiasNanos,BiasNanos,BiasUncertaintyNanos,DriftNanosPerSecond,DriftUncertaintyNanosPerSecond,HardwareClockDiscontinuityCount,Svid,TimeOffsetNanos,State,ReceivedSvTimeNanos,ReceivedSvTimeUncertaintyNanos,Cn0DbHz,PseudorangeRateMetersPerSecond,PseudorangeRateUncertaintyMetersPerSecond,AccumulatedDeltaRangeState,AccumulatedDeltaRangeMeters,AccumulatedDeltaRangeUncertaintyMeters,CarrierFrequencyHz,CarrierCycles,CarrierPhase,CarrierPhaseUncertainty,MultipathIndicator,SnrInDb,ConstellationType,AgcDb,CarrierFrequencyHz
# 
# Fix,Provider,Latitude,Longitude,Altitude,Speed,Accuracy,(UTC)TimeInMs
# 
# Nav,Svid,Type,Status,MessageId,Sub-messageId,Data(Bytes)
# 
Fix,gps,48.353202,15.621631,308.132813,0.000000,9.648001,1524641676000
Fix,gps,48.353202,15.621631,308.136475,0.000000,9.648001,1524641677000
Fix,gps,48.353202,15.621631,308.134888,0.000000,9.648001,1524641678000
Fix,gps,48.353201,15.621635,306.491333,0.150000,3.216000,1524641679000
Fix,gps,48.353202,15.621634,305.614502,0.160000,3.216000,1524641680000
Fix,gps,48.353206,15.621630,305.823669,0.850000,3.216000,1524641681000
Fix,gps,48.353206,15.621639,305.416382,0.580000,3.216000,1524641682000
Fix,gps,48.353208,15.621662,304.437500,1.570000,3.216000,1524641683000
Fix,gps,48.353215,15.621693,304.544006,2.420000,3.216000,1524641684000
Fix,gps,48.353222,15.621744,303.577881,3.450000,3.216000,1524641685000
Fix,gps,48.353238,15.621806,303.880249,4.740000,3.216000,1524641686000
Fix,gps,48.353260,15.621893,303.108826,5.800000,3.216000,1524641687000
Fix,gps,48.353279,15.621992,302.442993,7.360000,3.216000,1524641688000
Fix,gps,48.353304,15.622107,301.341675,8.530000,3.216000,1524641689000
Fix,gps,48.353337,15.622221,301.561584,9.200000,3.216000,1524641690000
Fix,gps,48.353369,15.622343,301.417664,9.720000,3.216000,1524641691000
Fix,gps,48.353405,15.622483,300.061707,10.420000,3.216000,1524641692000
Fix,gps,48.353431,15.622620,300.507690,10.760000,3.216000,1524641693000
Fix,gps,48.353473,15.622752,299.364136,10.440000,3.216000,1524641694000
Fix,gps,48.353509,15.622884,300.088135,10.710000,3.216000,1524641695000
Fix,gps,48.353542,15.623027,299.788208,11.250000,3.216000,1524641696000
Fix,gps,48.353563,15.623169,302.910828,11.800000,3.216000,1524641697000
Fix,gps,48.353588,15.623311,304.138062,12.310000,3.216000,1524641698000
Fix,gps,48.353616,15.623466,304.455627,12.080000,3.216000,1524641699000
Fix,gps,48.353659,15.623606,303.357300,11.410000,3.216000,1524641700000
Fix,gps,48.353703,15.623748,300.970825,11.070000,4.288000,1524641701000
Fix,gps,48.353746,15.623883,301.517944,10.490000,4.288000,1524641702000
Fix,gps,48.353784,15.624010,301.968994,10.150000,4.288000,1524641703000
Fix,gps,48.353817,15.624132,302.544189,9.770000,4.288000,1524641704000
Fix,gps,48.353857,15.624254,302.275269,9.760000,4.288000,1524641705000
Fix,gps,48.353894,15.624362,301.902954,9.720000,4.288000,1524641706000
Fix,gps,48.353922,15.624479,302.151978,9.430000,5.360000,1524641707000
Fix,gps,48.353942,15.624571,302.472412,9.030000,5.360000,1524641708000
Fix,gps,48.353981,15.624683,302.526001,8.550000,4.288000,1524641709000
Fix,gps,48.354016,15.624787,302.508301,8.250000,4.288000,1524641710000
Fix,gps,48.354050,15.624887,303.296265,7.910000,4.288000,1524641711000
Fix,gps,48.354072,15.624975,303.635132,7.170000,4.288000,1524641712000
Fix,gps,48.354089,15.625051,303.902649,6.040000,4.288000,1524641713000
Fix,gps,48.354113,15.625106,304.226074,5.680000,3.216000,1524641714000
Fix,gps,48.354128,15.625161,303.429626,4.770000,3.216000,1524641715000
Fix,gps,48.354138,15.625210,302.601135,4.570000,3.216000,1524641716000
Fix,gps,48.354152,15.625257,302.100830,4.370000,4.288000,1524641717000
Fix,gps,48.354159,15.625323,302.645874,4.690000,4.288000,1524641718000
Fix,gps,48.354181,15.625389,302.166992,5.110000,4.288000,1524641719000
Fix,gps,48.354200,15.625462,302.248047,5.640000,5.360000,1524641720000
Fix,gps,48.354222,15.625540,302.294189,6.240000,4.288000,1524641721000
Fix,gps,48.354249,15.625642,302.187988,7.900000,4.288000,1524641722000
Fix,gps,48.354285,15.625758,303.393433,9.520000,4.288000,1524641723000
Fix,gps,48.354305,15.625901,304.166626,11.990000,4.288000,1524641724000
Fix,gps,48.354344,15.626067,307.091553,14.290000,4.288000,1524641725000
Fix,gps,48.354387,15.626257,307.864685,14.390000,4.288000,1524641726000
Fix,gps,48.354426,15.626431,307.741211,13.540000,4.288000,1524641727000
Fix,gps,48.354467,15.626601,306.490356,13.120000,5.360000,1524641728000
Fix,gps,48.354501,15.626775,306.549805,13.310000,5.360000,1524641729000
Fix,gps,48.354529,15.626946,307.084717,13.450000,5.360000,1524641730000
Fix,gps,48.354552,15.627139,305.592163,13.700000,5.360000,1524641731000
Fix,gps,48.354570,15.627318,305.326538,13.340000,4.288000,1524641732000
Fix,gps,48.354585,15.627497,306.032166,13.490000,5.360000,1524641733000
Fix,gps,48.354595,15.627686,305.681641,13.370000,5.360000,1524641734000
Fix,gps,48.354619,15.627864,305.652344,13.250000,5.360000,1524641735000
Fix,gps,48.354637,15.628044,305.227966,13.220000,5.360000,1524641736000
Fix,gps,48.354650,15.628210,305.711365,12.530000,5.360000,1524641737000
Fix,gps,48.354667,15.628373,306.292847,12.050000,5.360000,1524641738000
Fix,gps,48.354686,15.628526,306.393616,11.620000,5.360000,1524641739000
Fix,gps,48.354701,15.628692,306.273560,11.360000,5.360000,1524641740000
Fix,gps,48.354720,15.628828,307.289368,11.210000,4.288000,1524641741000
Fix,gps,48.354741,15.628977,308.105286,11.230000,4.288000,1524641742000
Fix,gps,48.354752,15.629128,309.131653,11.380000,4.288000,1524641743000
Fix,gps,48.354774,15.629284,309.317810,11.480000,5.360000,1524641744000
Fix,gps,48.354797,15.629451,308.726440,11.490000,4.288000,1524641745000
Fix,gps,48.354821,15.629592,308.859741,11.420000,4.288000,1524641746000
Fix,gps,48.354852,15.629738,309.069092,11.530000,4.288000,1524641747000
Fix,gps,48.354880,15.629890,309.244629,11.630000,3.216000,1524641748000
Fix,gps,48.354914,15.630041,308.740234,11.440000,3.216000,1524641749000
Fix,gps,48.354948,15.630179,309.241455,11.570000,4.288000,1524641750000
Fix,gps,48.354991,15.630316,308.664551,11.480000,4.288000,1524641751000
Fix,gps,48.355027,15.630456,307.513550,11.440000,3.216000,1524641752000
Fix,gps,48.355045,15.630593,306.785217,11.220000,3.216000,1524641753000
Fix,gps,48.355073,15.630744,307.256897,11.150000,4.288000,1524641754000
Fix,gps,48.355098,15.630896,307.136475,11.000000,4.288000,1524641755000
Fix,gps,48.355116,15.631043,307.707581,10.500000,4.288000,1524641756000
Fix,gps,48.355126,15.631180,307.027100,10.260000,4.288000,1524641757000
Fix,gps,48.355133,15.631312,306.885376,10.040000,4.288000,1524641758000
Fix,gps,48.355147,15.631446,307.401733,9.970000,4.288000,1524641759000
Fix,gps,48.355163,15.631578,307.898743,9.380000,4.288000,1524641760000
Fix,gps,48.355194,15.631679,306.994019,8.840000,3.216000,1524641761000
Fix,gps,48.355225,15.631781,306.542114,8.130000,4.288000,1524641762000
Fix,gps,48.355260,15.631882,306.675903,7.910000,4.288000,1524641763000
Fix,gps,48.355300,15.631951,306.643921,6.910000,4.288000,1524641764000
Fix,gps,48.355339,15.632000,307.244690,5.840000,5.360000,1524641765000
Fix,gps,48.355421,15.632008,308.368652,7.360000,4.288000,1524641766000
Fix,gps,48.355493,15.631982,306.350220,7.950000,4.288000,1524641767000
Fix,gps,48.355562,15.631960,306.450073,7.570000,5.360000,1524641768000
Fix,gps,48.355630,15.631942,306.241577,7.760000,5.360000,1524641769000
Fix,gps,48.355707,15.631915,306.401733,7.780000,4.288000,1524641770000
Fix,gps,48.355771,15.631896,307.421570,7.700000,5.360000,1524641771000
Fix,gps,48.355838,15.631877,307.929138,7.270000,5.360000,1524641772000
Fix,gps,48.355910,15.631853,307.259521,7.140000,4.288000,1524641773000
Fix,gps,48.355973,15.631836,307.891296,7.000000,5.360000,1524641774000
Fix,gps,48.356036,15.631830,308.515625,6.740000,5.360000,1524641775000
Fix,gps,48.356075,15.631805,308.876343,5.860000,5.360000,1524641776000
Fix,gps,48.356123,15.631801,308.904236,4.990000,5.360000,1524641777000
Fix,gps,48.356134,15.631811,307.873535,3.980000,5.360000,1524641778000
Fix,gps,48.356150,15.631825,308.152832,4.030000,5.360000,1524641779000
Fix,gps,48.356194,15.631874,309.550293,4.140000,5.360000,1524641780000
Fix,gps,48.356200,15.631933,311.861511,4.380000,5.360000,1524641781000
Fix,gps,48.356215,15.631992,311.375183,4.920000,5.360000,1524641782000
Fix,gps,48.356235,15.632069,310.983521,5.930000,5.360000,1524641783000
Fix,gps,48.356264,15.632198,311.211670,8.610000,5.360000,1524641784000
Fix,gps,48.356271,15.632317,310.403076,10.890000,4.288000,1524641785000
Fix,gps,48.356302,15.632468,310.980347,12.110000,4.288000,1524641786000
Fix,gps,48.356362,15.632631,312.838257,12.590000,4.288000,1524641787000
Fix,gps,48.356404,15.632803,313.352173,13.340000,4.288000,1524641788000
Fix,gps,48.356464,15.632959,313.818848,12.860000,4.288000,1524641789000
Fix,gps,48.356516,15.633130,313.684204,13.260000,4.288000,1524641790000
Fix,gps,48.356554,15.633293,314.593384,12.970000,4.288000,1524641791000
Fix,gps,48.356583,15.633474,312.864319,12.720000,3.216000,1524641792000
Fix,gps,48.356614,15.633630,313.586304,12.350000,3.216000,1524641793000
Fix,gps,48.356627,15.633795,313.905273,12.030000,3.216000,1524641794000
Fix,gps,48.356643,15.633955,314.691895,11.940000,3.216000,1524641795000
Fix,gps,48.356659,15.634123,315.566528,12.050000,3.216000,1524641796000
Fix,gps,48.356672,15.634288,315.766479,12.370000,3.216000,1524641797000
Fix,gps,48.356697,15.634452,315.985107,12.490000,3.216000,1524641798000
Fix,gps,48.356733,15.634609,316.108276,12.560000,3.216000,1524641799000
Fix,gps,48.356773,15.634768,316.238159,12.280000,3.216000,1524641800000
Fix,gps,48.356815,15.634909,317.554688,11.900000,3.216000,1524641801000
Fix,gps,48.356871,15.635034,318.606567,11.680000,3.216000,1524641802000
Fix,gps,48.356947,15.635134,321.020386,11.790000,3.216000,1524641803000
Fix,gps,48.357044,15.635212,323.590820,12.060000,3.216000,1524641804000
Fix,gps,48.357152,15.635280,324.413208,12.780000,3.216000,1524641805000
Fix,gps,48.357260,15.635369,324.382202,13.480000,3.216000,1524641806000
Fix,gps,48.357369,15.635452,324.396973,13.700000,3.216000,1524641807000
Fix,gps,48.357479,15.635547,324.426025,14.050000,3.216000,1524641808000
Fix,gps,48.357583,15.635651,324.270630,14.280000,3.216000,1524641809000
Fix,gps,48.357693,15.635765,324.578247,14.830000,3.216000,1524641810000
Fix,gps,48.357797,15.635896,325.723267,14.900000,3.216000,1524641811000
Fix,gps,48.357892,15.636022,326.612671,14.710000,3.216000,1524641812000
Fix,gps,48.357989,15.636165,327.104858,14.990000,3.216000,1524641813000
Fix,gps,48.358090,15.636315,328.026123,15.280000,3.216000,1524641814000
Fix,gps,48.358191,15.636472,328.984375,15.730000,3.216000,1524641815000
Fix,gps,48.358285,15.636637,328.984436,15.910000,3.216000,1524641816000
Fix,gps,48.358375,15.636810,329.073730,16.209999,3.216000,1524641817000
Fix,gps,48.358474,15.636980,330.932739,16.410000,3.216000,1524641818000
Fix,gps,48.358579,15.637137,332.712708,16.360001,3.216000,1524641819000
Fix,gps,48.358692,15.637281,332.888245,16.129999,3.216000,1524641820000
Fix,gps,48.358804,15.637423,332.529297,16.049999,3.216000,1524641821000
Fix,gps,48.358909,15.637539,334.234924,15.280000,3.216000,1524641822000
Fix,gps,48.359026,15.637649,334.474609,14.910000,3.216000,1524641823000
Fix,gps,48.359128,15.637714,335.264221,13.380000,3.216000,1524641824000
Fix,gps,48.359247,15.637770,335.604431,13.830000,3.216000,1524641825000
Fix,gps,48.359367,15.637822,335.244568,13.670000,3.216000,1524641826000
Fix,gps,48.359478,15.637864,336.042786,13.280000,3.216000,1524641827000
Fix,gps,48.359580,15.637920,336.289917,12.900000,3.216000,1524641828000
Fix,gps,48.359684,15.638005,336.319458,12.760000,4.288000,1524641829000
Fix,gps,48.359767,15.638119,336.850281,12.740000,4.288000,1524641830000
Fix,gps,48.359851,15.638262,336.265808,12.770000,3.216000,1524641831000
Fix,gps,48.359914,15.638421,336.424744,13.200000,3.216000,1524641832000
Fix,gps,48.359973,15.638582,336.403442,13.600000,3.216000,1524641833000
Fix,gps,48.360007,15.638765,337.035156,13.870000,3.216000,1524641834000
Fix,gps,48.360035,15.638942,337.176514,13.570000,3.216000,1524641835000
Fix,gps,48.360060,15.639121,337.482788,13.370000,3.216000,1524641836000
Fix,gps,48.360082,15.639303,338.100037,13.350000,3.216000,1524641837000
Fix,gps,48.360115,15.639472,338.133301,13.450000,3.216000,1524641838000
Fix,gps,48.360151,15.639654,338.940308,13.600000,3.216000,1524641839000
Fix,gps,48.360183,15.639841,337.446960,13.780000,3.216000,1524641840000
Fix,gps,48.360213,15.640028,337.846558,14.080000,3.216000,1524641841000
Fix,gps,48.360247,15.640215,337.600708,14.510000,3.216000,1524641842000
Fix,gps,48.360295,15.640412,338.048950,15.240000,3.216000,1524641843000
Fix,gps,48.360346,15.640627,337.539795,16.459999,3.216000,1524641844000
Fix,gps,48.360393,15.640856,338.398499,17.840000,3.216000,1524641845000
Fix,gps,48.360443,15.641105,339.468384,19.260000,3.216000,1524641846000
Fix,gps,48.360486,15.641379,340.753296,20.629999,3.216000,1524641847000
Fix,gps,48.360513,15.641670,341.667725,21.990000,3.216000,1524641848000
Fix,gps,48.360528,15.641986,342.709595,23.350000,3.216000,1524641849000
Fix,gps,48.360546,15.642322,343.411987,24.790001,3.216000,1524641850000
Fix,gps,48.360567,15.642679,344.255981,26.200001,3.216000,1524641851000
Fix,gps,48.360585,15.643053,344.914307,27.410000,3.216000,1524641852000
Fix,gps,48.360598,15.643425,345.891357,27.299999,3.216000,1524641853000
Fix,gps,48.360616,15.643794,346.655090,27.090000,4.288000,1524641854000
Fix,gps,48.360633,15.644158,347.330383,27.049999,4.288000,1524641855000
Fix,gps,48.360677,15.644506,347.823792,26.930000,3.216000,1524641856000
Fix,gps,48.360717,15.644866,348.371704,26.930000,3.216000,1524641857000
Fix,gps,48.360763,15.645214,348.632690,26.940001,3.216000,1524641858000
Fix,gps,48.360790,15.645578,349.709106,26.930000,3.216000,1524641859000
Fix,gps,48.360795,15.645946,349.882813,26.879999,4.288000,1524641860000
Fix,gps,48.360770,15.646311,351.909912,26.930000,3.216000,1524641861000
Fix,gps,48.360732,15.646693,352.526367,27.190001,3.216000,1524641862000
Fix,gps,48.360657,15.647042,353.332275,26.980000,3.216000,1524641863000
Fix,gps,48.360589,15.647401,354.357605,27.040001,3.216000,1524641864000
Fix,gps,48.360547,15.647759,356.631104,27.290001,3.216000,1524641865000
Fix,gps,48.360527,15.648115,357.241028,26.850000,3.216000,1524641866000
Fix,gps,48.360519,15.648471,357.732666,26.680000,4.288000,1524641867000
Fix,gps,48.360503,15.648836,358.793823,27.200001,3.216000,1524641868000
Fix,gps,48.360471,15.649208,359.462524,27.080000,3.216000,1524641869000
Fix,gps,48.360438,15.649566,360.646606,27.150000,3.216000,1524641870000
Fix,gps,48.360423,15.649924,361.359375,26.820000,3.216000,1524641871000
Fix,gps,48.360430,15.650290,362.591492,27.020000,3.216000,1524641872000
Fix,gps,48.360451,15.650646,362.755371,26.459999,3.216000,1524641873000
Fix,gps,48.360477,15.651010,363.079895,26.760000,3.216000,1524641874000
Fix,gps,48.360503,15.651375,364.382446,27.049999,3.216000,1524641875000
Fix,gps,48.360535,15.651746,364.100342,26.980000,3.216000,1524641876000
Fix,gps,48.360557,15.652107,364.796753,27.059999,3.216000,1524641877000
Fix,gps,48.360577,15.652466,365.463013,27.110001,3.216000,1524641878000
Fix,gps,48.360597,15.652827,366.253906,27.110001,3.216000,1524641879000
Fix,gps,48.360621,15.653198,367.457947,27.320000,3.216000,1524641880000
Fix,gps,48.360657,15.653547,368.571167,27.030001,3.216000,1524641881000
Fix,gps,48.360690,15.653910,369.761414,26.950001,3.216000,1524641882000
Fix,gps,48.360721,15.654275,371.070984,27.280001,3.216000,1524641883000
Fix,gps,48.360755,15.654642,372.508057,27.440001,3.216000,1524641884000
Fix,gps,48.360798,15.655011,373.514526,27.709999,3.216000,1524641885000
Fix,gps,48.360861,15.655353,374.575439,27.059999,3.216000,1524641886000
Fix,gps,48.360913,15.655714,375.827454,27.040001,3.216000,1524641887000
Fix,gps,48.360970,15.656075,376.997559,27.190001,3.216000,1524641888000
Fix,gps,48.361019,15.656436,377.821289,27.150000,3.216000,1524641889000
Fix,gps,48.361065,15.656799,379.020142,27.070000,3.216000,1524641890000
Fix,gps,48.361093,15.657176,379.483398,28.180000,3.216000,1524641891000
Fix,gps,48.361103,15.657525,380.391846,26.389999,3.216000,1524641892000
Fix,gps,48.361118,15.657872,381.400879,25.840000,3.216000,1524641893000
Fix,gps,48.361117,15.658193,381.405701,25.030001,3.216000,1524641894000
Fix,gps,48.361131,15.658522,382.223022,24.270000,3.216000,1524641895000
Fix,gps,48.361163,15.658832,382.982788,23.270000,3.216000,1524641896000
Fix,gps,48.361185,15.659117,383.445007,21.750000,3.216000,1524641897000
Fix,gps,48.361226,15.659364,383.379333,19.469999,3.216000,1524641898000
Fix,gps,48.361250,15.659595,384.130371,17.280001,3.216000,1524641899000
Fix,gps,48.361258,15.659788,384.478516,14.050000,3.216000,1524641900000
Fix,gps,48.361238,15.659965,385.276855,12.820000,4.288000,1524641901000
Fix,gps,48.361219,15.660135,387.056335,11.920000,4.288000,1524641902000
Fix,gps,48.361188,15.660251,385.437988,11.120000,4.288000,1524641903000
Fix,gps,48.361155,15.660385,386.033752,10.020000,4.288000,1524641904000
Fix,gps,48.361142,15.660515,386.457764,10.120000,4.288000,1524641905000
Fix,gps,48.361147,15.660646,386.862793,9.370000,4.288000,1524641906000
Fix,gps,48.361183,15.660756,387.707275,8.510000,4.288000,1524641907000
Fix,gps,48.361222,15.660847,387.573853,8.010000,4.288000,1524641908000
Fix,gps,48.361251,15.660917,387.465942,6.390000,4.288000,1524641909000
Fix,gps,48.361279,15.660984,387.591064,6.040000,4.288000,1524641910000
Fix,gps,48.361299,15.661064,387.638611,6.450000,4.288000,1524641911000
Fix,gps,48.361343,15.661197,387.113281,9.450000,4.288000,1524641912000
Fix,gps,48.361379,15.661317,386.776794,9.670000,4.288000,1524641913000
Fix,gps,48.361419,15.661407,386.255127,8.740000,4.288000,1524641914000
Fix,gps,48.361455,15.661502,386.186829,8.210000,4.288000,1524641915000
Fix,gps,48.361464,15.661580,386.502686,6.740000,4.288000,1524641916000
Fix,gps,48.361457,15.661657,386.180847,5.750000,4.288000,1524641917000
Fix,gps,48.361435,15.661743,386.590576,5.760000,4.288000,1524641918000
Fix,gps,48.361364,15.661813,387.070190,7.830000,3.216000,1524641919000
Fix,gps,48.361300,15.661871,387.423828,8.290000,3.216000,1524641920000
Fix,gps,48.361239,15.661937,388.318115,8.530000,3.216000,1524641921000
Fix,gps,48.361197,15.662009,388.522339,8.740000,3.216000,1524641922000
Fix,gps,48.361128,15.662100,389.615112,8.850000,3.216000,1524641923000
Fix,gps,48.361066,15.662199,390.616882,8.680000,3.216000,1524641924000
Fix,gps,48.361002,15.662258,393.590088,8.130000,3.216000,1524641925000
Fix,gps,48.360958,15.662317,393.713501,6.780000,3.216000,1524641926000
Fix,gps,48.360912,15.662391,394.650208,6.830000,3.216000,1524641927000
Fix,gps,48.360833,15.662469,396.506531,8.470000,3.216000,1524641928000
Fix,gps,48.360797,15.662577,397.522034,8.940000,3.216000,1524641929000
Fix,gps,48.360756,15.662700,398.016846,10.530000,4.288000,1524641930000
Fix,gps,48.360718,15.662846,400.398804,10.730000,4.288000,1524641931000
Fix,gps,48.360703,15.663003,401.713684,11.250000,4.288000,1524641932000
Fix,gps,48.360684,15.663158,403.045532,11.370000,4.288000,1524641933000
Fix,gps,48.360656,15.663289,403.199524,11.100000,4.288000,1524641934000
Fix,gps,48.360639,15.663424,404.088501,8.860000,4.288000,1524641935000
Fix,gps,48.360621,15.663581,405.125061,10.110000,4.288000,1524641936000
Fix,gps,48.360631,15.663704,405.724243,8.770000,4.288000,1524641937000
Fix,gps,48.360638,15.663861,405.455688,10.020000,4.288000,1524641938000
Fix,gps,48.360674,15.663991,406.908936,9.040000,4.288000,1524641939000
Fix,gps,48.360738,15.664102,407.800415,10.510000,4.288000,1524641940000
Fix,gps,48.360752,15.664270,408.566589,10.880000,4.288000,1524641941000
Fix,gps,48.360793,15.664435,409.809021,10.840000,4.288000,1524641942000
Fix,gps,48.360837,15.664587,411.801392,11.400000,4.288000,1524641943000
Fix,gps,48.360896,15.664722,412.621033,11.870000,4.288000,1524641944000
Fix,gps,48.360954,15.664850,413.839233,11.470000,4.288000,1524641945000
Fix,gps,48.360989,15.664981,413.631104,10.670000,4.288000,1524641946000
Fix,gps,48.360974,15.665130,415.060913,10.140000,4.288000,1524641947000
Fix,gps,48.360953,15.665264,417.599365,9.840000,4.288000,1524641948000
Fix,gps,48.360906,15.665379,417.917480,10.010000,3.216000,1524641949000
Fix,gps,48.360864,15.665523,418.201294,10.210000,4.288000,1524641950000
Fix,gps,48.360784,15.665614,418.325256,9.850000,4.288000,1524641951000
Fix,gps,48.360693,15.665657,418.653381,9.680000,4.288000,1524641952000
Fix,gps,48.360578,15.665702,419.160889,10.080000,5.360000,1524641953000
Fix,gps,48.360475,15.665715,421.371460,10.550000,5.360000,1524641954000
Fix,gps,48.360382,15.665749,419.549438,10.820000,5.360000,1524641955000
Fix,gps,48.360278,15.665768,419.138306,11.160000,4.288000,1524641956000
Fix,gps,48.360179,15.665783,419.507568,11.130000,5.360000,1524641957000
Fix,gps,48.360094,15.665790,418.708862,10.820000,4.288000,1524641958000
Fix,gps,48.360001,15.665823,423.002380,10.560000,4.288000,1524641959000
Fix,gps,48.359900,15.665867,422.962769,10.730000,4.288000,1524641960000
Fix,gps,48.359786,15.665882,424.221313,11.000000,4.288000,1524641961000
Fix,gps,48.359674,15.665909,423.709656,11.010000,5.360000,1524641962000
Fix,gps,48.359573,15.665958,424.207336,10.570000,3.216000,1524641963000
Fix,gps,48.359494,15.666012,424.170471,10.130000,3.216000,1524641964000
Fix,gps,48.359413,15.666090,424.233704,10.550000,4.288000,1524641965000
Fix,gps,48.359346,15.666187,423.619202,9.730000,3.216000,1524641966000
Fix,gps,48.359285,15.666277,424.417847,8.980000,3.216000,1524641967000
Fix,gps,48.359233,15.666364,424.500977,8.240000,3.216000,1524641968000
Fix,gps,48.359195,15.666431,424.295288,7.020000,3.216000,1524641969000
Fix,gps,48.359143,15.666484,425.582031,6.170000,3.216000,1524641970000
Fix,gps,48.359099,15.666513,425.981689,5.710000,3.216000,1524641971000
Fix,gps,48.359064,15.666539,425.695984,4.850000,3.216000,1524641972000
Fix,gps,48.359025,15.666568,425.488403,5.050000,3.216000,1524641973000
Fix,gps,48.358991,15.666603,425.514893,4.720000,3.216000,1524641974000
Fix,gps,48.358987,15.666640,425.545898,3.330000,3.216000,1524641975000
Fix,gps,48.358980,15.666677,425.684692,2.530000,3.216000,1524641976000
Fix,gps,48.358988,15.666710,425.668274,2.580000,3.216000,1524641977000
Fix,gps,48.358987,15.666743,425.429199,2.510000,3.216000,1524641978000
Fix,gps,48.358987,15.666769,426.226563,1.670000,3.216000,1524641979000
Fix,gps,48.358989,15.666790,427.772095,1.390000,3.216000,1524641980000
Fix,gps,48.358992,15.666808,427.389160,1.320000,3.216000,1524641981000
Fix,gps,48.358995,15.666829,426.671997,1.470000,3.216000,1524641982000
Fix,gps,48.358996,15.666860,427.333618,2.230000,3.216000,1524641983000
Fix,gps,48.358997,15.666900,429.383911,2.540000,3.216000,1524641984000
Fix,gps,48.358998,15.666933,430.383057,2.070000,3.216000,1524641985000
Fix,gps,48.359007,15.666961,430.650146,2.060000,3.216000,1524641986000
Fix,gps,48.359016,15.666988,430.972473,2.070000,3.216000,1524641987000
Fix,gps,48.359028,15.667022,431.489380,2.760000,3.216000,1524641988000
Fix,gps,48.359043,15.667064,431.729736,3.520000,3.216000,1524641989000
Fix,gps,48.359056,15.667122,431.400269,4.180000,3.216000,1524641990000
Fix,gps,48.359027,15.667212,431.312561,4.940000,3.216000,1524641991000
Fix,gps,48.359022,15.667289,431.158569,5.550000,3.216000,1524641992000
Fix,gps,48.359012,15.667374,431.178467,6.070000,3.216000,1524641993000
Fix,gps,48.359005,15.667458,430.708252,6.260000,3.216000,1524641994000
Fix,gps,48.358990,15.667546,430.195435,6.330000,3.216000,1524641995000
Fix,gps,48.358971,15.667641,430.311890,6.760000,3.216000,1524641996000
Fix,gps,48.358940,15.667720,430.524597,6.410000,3.216000,1524641997000
Fix,gps,48.358925,15.667803,430.573242,6.370000,3.216000,1524641998000
Fix,gps,48.358906,15.667900,429.759033,6.830000,3.216000,1524641999000
Fix,gps,48.358897,15.667994,428.963501,6.770000,3.216000,1524642000000
Fix,gps,48.358888,15.668089,427.878906,6.740000,3.216000,1524642001000
Fix,gps,48.358880,15.668183,427.337463,6.720000,3.216000,1524642002000
Fix,gps,48.358864,15.668266,427.692261,6.660000,3.216000,1524642003000
Fix,gps,48.358854,15.668368,426.869751,6.570000,3.216000,1524642004000
Fix,gps,48.358842,15.668469,425.765991,6.460000,3.216000,1524642005000
Fix,gps,48.358828,15.668559,426.206543,6.640000,3.216000,1524642006000
Fix,gps,48.358818,15.668645,426.320068,6.590000,3.216000,1524642007000
Fix,gps,48.358800,15.668732,426.222656,6.670000,3.216000,1524642008000
Fix,gps,48.358788,15.668822,426.317200,6.730000,3.216000,1524642009000
Fix,gps,48.358776,15.668906,426.662476,6.770000,3.216000,1524642010000
Fix,gps,48.358772,15.668988,425.425598,6.540000,3.216000,1524642011000
Fix,gps,48.358760,15.669078,425.451050,6.730000,3.216000,1524642012000
Fix,gps,48.358748,15.669169,426.218750,6.550000,3.216000,1524642013000
Fix,gps,48.358746,15.669255,425.982300,6.370000,3.216000,1524642014000
Fix,gps,48.358729,15.669347,426.693359,6.580000,3.216000,1524642015000
Fix,gps,48.358714,15.669438,427.113464,6.510000,3.216000,1524642016000
Fix,gps,48.358699,15.669526,427.346558,6.460000,3.216000,1524642017000
Fix,gps,48.358686,15.669614,427.931396,6.390000,3.216000,1524642018000
Fix,gps,48.358674,15.669706,428.793823,6.380000,3.216000,1524642019000
Fix,gps,48.358657,15.669793,428.857300,6.350000,3.216000,1524642020000
Fix,gps,48.358643,15.669883,429.006836,6.360000,3.216000,1524642021000
Fix,gps,48.358635,15.669972,429.719727,6.310000,3.216000,1524642022000
Fix,gps,48.358625,15.670057,430.376831,6.340000,3.216000,1524642023000
Fix,gps,48.358611,15.670146,430.214111,6.380000,3.216000,1524642024000
Fix,gps,48.358594,15.670221,430.024536,6.330000,3.216000,1524642025000
Fix,gps,48.358581,15.670302,429.691650,6.400000,3.216000,1524642026000
Fix,gps,48.358560,15.670382,429.475342,6.500000,3.216000,1524642027000
Fix,gps,48.358544,15.670463,429.130188,6.600000,3.216000,1524642028000
Fix,gps,48.358526,15.670547,428.672119,6.560000,3.216000,1524642029000
Fix,gps,48.358507,15.670628,427.795044,6.640000,3.216000,1524642030000
Fix,gps,48.358492,15.670718,427.782349,6.660000,3.216000,1524642031000
Fix,gps,48.358477,15.670802,427.609375,6.840000,3.216000,1524642032000
Fix,gps,48.358464,15.670882,427.448364,6.750000,3.216000,1524642033000
Fix,gps,48.358435,15.670973,426.931030,6.930000,3.216000,1524642034000
Fix,gps,48.358422,15.671063,424.322632,7.030000,3.216000,1524642035000
Fix,gps,48.358405,15.671159,422.422913,7.180000,3.216000,1524642036000
Fix,gps,48.358386,15.671262,421.490479,7.250000,3.216000,1524642037000
Fix,gps,48.358374,15.671335,418.693848,7.500000,3.216000,1524642038000
Fix,gps,48.358353,15.671429,417.450928,7.700000,3.216000,1524642039000
Fix,gps,48.358329,15.671542,415.931396,7.880000,3.216000,1524642040000
Fix,gps,48.358316,15.671639,414.469116,8.120000,3.216000,1524642041000
Fix,gps,48.358297,15.671748,413.657288,8.170000,3.216000,1524642042000
Fix,gps,48.358278,15.671852,413.942261,8.180000,4.288000,1524642043000
Fix,gps,48.358252,15.671962,413.696777,8.420000,5.360000,1524642044000
Fix,gps,48.358232,15.672078,413.519714,8.290000,4.288000,1524642045000
Fix,gps,48.358212,15.672200,412.722290,8.420000,4.288000,1524642046000
Fix,gps,48.358183,15.672325,411.612183,8.650000,4.288000,1524642047000
Fix,gps,48.358158,15.672434,411.112610,8.680000,4.288000,1524642048000
Fix,gps,48.358128,15.672541,411.074768,8.720000,4.288000,1524642049000
Fix,gps,48.358095,15.672661,411.440063,8.840000,5.360000,1524642050000
Fix,gps,48.358072,15.672781,411.847107,8.980000,5.360000,1524642051000
Fix,gps,48.358048,15.672889,411.300659,8.940000,5.360000,1524642052000
Fix,gps,48.358030,15.672991,410.844971,8.870000,5.360000,1524642053000
Fix,gps,48.357996,15.673103,411.099121,8.680000,5.360000,1524642054000
Fix,gps,48.357965,15.673209,411.236450,8.620000,5.360000,1524642055000
Fix,gps,48.357966,15.673297,410.632202,8.330000,4.288000,1524642056000
Fix,gps,48.357977,15.673383,408.282837,8.150000,4.288000,1524642057000
Fix,gps,48.358013,15.673495,408.147827,8.110000,4.288000,1524642058000
Fix,gps,48.358072,15.673575,406.280823,8.300000,3.216000,1524642059000
Fix,gps,48.358147,15.673629,406.257507,8.480000,3.216000,1524642060000
Fix,gps,48.358221,15.673670,405.839478,8.680000,3.216000,1524642061000
Fix,gps,48.358301,15.673699,405.892151,8.790000,3.216000,1524642062000
Fix,gps,48.358373,15.673725,405.540527,8.630000,3.216000,1524642063000
Fix,gps,48.358449,15.673749,405.628967,8.550000,4.288000,1524642064000
Fix,gps,48.358521,15.673767,405.377930,8.430000,4.288000,1524642065000
Fix,gps,48.358591,15.673782,404.532349,8.080000,4.288000,1524642066000
Fix,gps,48.358657,15.673798,404.684692,7.690000,4.288000,1524642067000
Fix,gps,48.358726,15.673839,403.975830,7.670000,4.288000,1524642068000
Fix,gps,48.358786,15.673894,404.373535,7.980000,4.288000,1524642069000
Fix,gps,48.358820,15.673944,405.173584,6.950000,4.288000,1524642070000
Fix,gps,48.358852,15.674035,403.061157,7.240000,5.360000,1524642071000
Fix,gps,48.358820,15.674124,403.221741,7.270000,5.360000,1524642072000
Fix,gps,48.358758,15.674172,401.714905,7.610000,5.360000,1524642073000
Fix,gps,48.358759,15.674295,402.404053,8.120000,6.432000,1524642074000
Fix,gps,48.358763,15.674398,401.793213,7.350000,6.432000,1524642075000
Fix,gps,48.358747,15.674513,401.120422,8.190000,6.432000,1524642076000
Fix,gps,48.358746,15.674626,400.025635,8.410000,6.432000,1524642077000
Fix,gps,48.358730,15.674736,398.182312,8.620000,6.432000,1524642078000
Fix,gps,48.358727,15.674866,396.941284,8.870000,6.432000,1524642079000
Fix,gps,48.358731,15.675004,396.496948,9.260000,6.432000,1524642080000
Fix,gps,48.358722,15.675130,395.815552,10.140000,6.432000,1524642081000
Fix,gps,48.358711,15.675276,392.402588,10.380000,5.360000,1524642082000
Fix,gps,48.358710,15.675376,392.649963,10.280000,6.432000,1524642083000
Fix,gps,48.358711,15.675525,391.811218,11.020000,6.432000,1524642084000
Fix,gps,48.358720,15.675689,391.369019,11.350000,5.360000,1524642085000
Fix,gps,48.358708,15.675843,389.308960,11.650000,5.360000,1524642086000
Fix,gps,48.358714,15.676018,389.565796,11.980000,4.288000,1524642087000
Fix,gps,48.358704,15.676167,388.216736,12.370000,4.288000,1524642088000
Fix,gps,48.358708,15.676342,388.866821,12.550000,4.288000,1524642089000
Fix,gps,48.358705,15.676520,388.558777,12.560000,4.288000,1524642090000
Fix,gps,48.358713,15.676684,389.576050,12.600000,4.288000,1524642091000
Fix,gps,48.358721,15.676859,389.365479,12.610000,4.288000,1524642092000
Fix,gps,48.358730,15.677020,389.596069,12.700000,4.288000,1524642093000
Fix,gps,48.358742,15.677203,389.323242,12.910000,4.288000,1524642094000
Fix,gps,48.358751,15.677382,389.302856,12.550000,5.360000,1524642095000
Fix,gps,48.358753,15.677542,388.073608,12.310000,5.360000,1524642096000
Fix,gps,48.358761,15.677706,387.258118,12.270000,5.360000,1524642097000
Fix,gps,48.358775,15.677859,385.462769,11.990000,5.360000,1524642098000
Fix,gps,48.358792,15.678034,386.584717,12.040000,5.360000,1524642099000
Fix,gps,48.358801,15.678191,386.703186,12.010000,5.360000,1524642100000
Fix,gps,48.358796,15.678348,385.618042,11.910000,5.360000,1524642101000
Fix,gps,48.358785,15.678514,384.257019,12.200000,6.432000,1524642102000
Fix,gps,48.358785,15.678717,382.174988,12.220000,5.360000,1524642103000
Fix,gps,48.358750,15.678861,381.577820,12.640000,5.360000,1524642104000
Fix,gps,48.358731,15.679019,380.416992,12.600000,5.360000,1524642105000
Fix,gps,48.358709,15.679189,380.614868,12.780000,5.360000,1524642106000
Fix,gps,48.358687,15.679371,377.952026,12.820000,5.360000,1524642107000
Fix,gps,48.358668,15.679544,377.511230,12.580000,5.360000,1524642108000
Fix,gps,48.358661,15.679709,377.101135,12.320000,5.360000,1524642109000
Fix,gps,48.358668,15.679880,379.311523,12.020000,6.432000,1524642110000
Fix,gps,48.358689,15.680021,380.394043,11.720000,6.432000,1524642111000
Fix,gps,48.358726,15.680190,380.594299,12.120000,6.432000,1524642112000
Fix,gps,48.358757,15.680335,381.034119,12.250000,5.360000,1524642113000
Fix,gps,48.358796,15.680489,382.837280,12.330000,5.360000,1524642114000
Fix,gps,48.358835,15.680640,382.786621,12.040000,4.288000,1524642115000
Fix,gps,48.358861,15.680801,382.324829,11.960000,4.288000,1524642116000
Fix,gps,48.358861,15.680955,381.596008,11.920000,4.288000,1524642117000
Fix,gps,48.358846,15.681131,382.978027,12.410000,4.288000,1524642118000
Fix,gps,48.358806,15.681295,381.964478,12.400000,4.288000,1524642119000
Fix,gps,48.358751,15.681447,380.958252,12.350000,4.288000,1524642120000
Fix,gps,48.358689,15.681581,380.635681,12.500000,4.288000,1524642121000
Fix,gps,48.358628,15.681718,379.691650,12.460000,5.360000,1524642122000
Fix,gps,48.358553,15.681871,377.627930,13.680000,5.360000,1524642123000
Fix,gps,48.358478,15.682020,376.125854,14.240000,5.360000,1524642124000
Fix,gps,48.358423,15.682184,374.854614,14.460000,5.360000,1524642125000
Fix,gps,48.358385,15.682362,374.096313,15.000000,5.360000,1524642126000
Fix,gps,48.358355,15.682547,372.502563,14.880000,5.360000,1524642127000
Fix,gps,48.358306,15.682743,371.054932,15.120000,5.360000,1524642128000
Fix,gps,48.358260,15.682937,369.743225,15.440000,5.360000,1524642129000
Fix,gps,48.358227,15.683109,367.211060,15.220000,5.360000,1524642130000
Fix,gps,48.358188,15.683311,364.726440,14.650000,5.360000,1524642131000
Fix,gps,48.358168,15.683481,363.580322,13.660000,5.360000,1524642132000
Fix,gps,48.358136,15.683654,362.527100,12.660000,5.360000,1524642133000
Fix,gps,48.358084,15.683800,361.581787,11.860000,5.360000,1524642134000
Fix,gps,48.358025,15.683931,362.139404,11.530000,6.432000,1524642135000
Fix,gps,48.357942,15.684028,361.627625,11.750000,5.360000,1524642136000
Fix,gps,48.357853,15.684083,360.541992,11.710000,5.360000,1524642137000
Fix,gps,48.357742,15.684085,359.972900,11.390000,5.360000,1524642138000
Fix,gps,48.357642,15.684063,360.289124,11.230000,6.432000,1524642139000
Fix,gps,48.357552,15.684053,360.088745,10.530000,6.432000,1524642140000
Fix,gps,48.357459,15.684078,357.544983,10.580000,6.432000,1524642141000
Fix,gps,48.357366,15.684113,357.694885,10.580000,6.432000,1524642142000
Fix,gps,48.357288,15.684183,357.092834,10.040000,7.504000,1524642143000
Fix,gps,48.357202,15.684317,358.512390,12.060000,7.504000,1524642144000
Fix,gps,48.357145,15.684463,357.982239,11.590000,7.504000,1524642145000
Fix,gps,48.357106,15.684602,357.832092,11.210000,9.648001,1524642146000
Fix,gps,48.357086,15.684793,356.181763,12.590000,7.504000,1524642147000
Fix,gps,48.357069,15.684986,355.773438,13.600000,7.504000,1524642148000
Fix,gps,48.357054,15.685152,353.379761,13.080000,7.504000,1524642149000
Fix,gps,48.357064,15.685334,352.628662,12.610000,6.432000,1524642150000
Fix,gps,48.357062,15.685490,352.987183,12.210000,6.432000,1524642151000
Fix,gps,48.357064,15.685649,352.630127,11.820000,6.432000,1524642152000
Fix,gps,48.357064,15.685826,351.071533,12.800000,6.432000,1524642153000
Fix,gps,48.357060,15.685989,349.793823,12.500000,6.432000,1524642154000
Fix,gps,48.357074,15.686196,349.265503,13.510000,6.432000,1524642155000
Fix,gps,48.357062,15.686388,347.011230,13.350000,6.432000,1524642156000
Fix,gps,48.357060,15.686579,347.710693,13.220000,6.432000,1524642157000
Fix,gps,48.357057,15.686764,347.395508,13.420000,6.432000,1524642158000
Fix,gps,48.357072,15.686947,346.344666,13.790000,6.432000,1524642159000
Fix,gps,48.357068,15.687139,345.909546,13.970000,5.360000,1524642160000
Fix,gps,48.357075,15.687316,346.301453,14.150000,6.432000,1524642161000
Fix,gps,48.357075,15.687511,347.468018,14.330000,6.432000,1524642162000
Fix,gps,48.357083,15.687704,347.322266,14.580000,6.432000,1524642163000
Fix,gps,48.357083,15.687906,348.360596,14.630000,6.432000,1524642164000
Fix,gps,48.357043,15.688098,345.529846,14.500000,6.432000,1524642165000
Fix,gps,48.357018,15.688292,343.053528,14.060000,5.360000,1524642166000
Fix,gps,48.357010,15.688475,340.956177,13.990000,5.360000,1524642167000
Fix,gps,48.357009,15.688663,339.672180,13.740000,5.360000,1524642168000
Fix,gps,48.357030,15.688839,339.738647,13.030000,5.360000,1524642169000
Fix,gps,48.357034,15.689025,339.597656,13.500000,5.360000,1524642170000
Fix,gps,48.357026,15.689185,338.807800,12.730000,5.360000,1524642171000
Fix,gps,48.357019,15.689340,336.737671,11.940000,5.360000,1524642172000
Fix,gps,48.356985,15.689497,334.981812,11.600000,5.360000,1524642173000
Fix,gps,48.356972,15.689636,334.636841,10.720000,5.360000,1524642174000
Fix,gps,48.356933,15.689743,333.314941,10.060000,10.720000,1524642175000
Fix,gps,48.356872,15.689859,332.921753,9.850000,9.648001,1524642176000
Fix,gps,48.356794,15.689947,333.450806,10.060000,9.648001,1524642177000
Fix,gps,48.356688,15.689976,331.188110,9.840000,9.648001,1524642178000
Fix,gps,48.356578,15.689983,327.518433,10.710000,9.648001,1524642179000
Fix,gps,48.356469,15.689990,326.294189,11.250000,9.648001,1524642180000
Fix,gps,48.356326,15.689983,324.133911,11.500000,10.720000,1524642181000
Fix,gps,48.356243,15.689993,324.133301,10.730000,9.648001,1524642182000
Fix,gps,48.356151,15.689995,322.375244,10.430000,10.720000,1524642183000
Fix,gps,48.356088,15.690006,321.632080,8.410000,10.720000,1524642184000
Fix,gps,48.355998,15.690021,321.092896,9.480000,10.720000,1524642185000
Fix,gps,48.355914,15.690039,320.497681,9.250000,10.720000,1524642186000
Fix,gps,48.355842,15.690059,320.070862,7.620000,10.720000,1524642187000
Fix,gps,48.355784,15.690143,319.954590,6.970000,10.720000,1524642188000
Fix,gps,48.355760,15.690240,319.168213,7.560000,9.648001,1524642189000
Fix,gps,48.355759,15.690360,318.177979,8.220000,9.648001,1524642190000
Fix,gps,48.355745,15.690495,317.991821,9.150000,9.648001,1524642191000
Fix,gps,48.355731,15.690640,317.123108,10.550000,9.648001,1524642192000
Fix,gps,48.355727,15.690804,316.840881,11.650000,9.648001,1524642193000
Fix,gps,48.355711,15.690988,315.555176,13.030000,9.648001,1524642194000
Fix,gps,48.355691,15.691136,314.388062,11.650000,9.648001,1524642195000
Fix,gps,48.355678,15.691296,312.702759,13.350000,9.648001,1524642196000
Fix,gps,48.355652,15.691455,311.825439,12.800000,9.648001,1524642197000
Fix,gps,48.355657,15.691593,310.941895,12.090000,9.648001,1524642198000
Fix,gps,48.355637,15.691767,309.833618,13.010000,9.648001,1524642199000
Fix,gps,48.355619,15.691914,307.741089,11.890000,9.648001,1524642200000
Fix,gps,48.355596,15.692084,306.324097,12.320000,9.648001,1524642201000
Fix,gps,48.355583,15.692242,305.238403,11.450000,9.648001,1524642202000
Fix,gps,48.355572,15.692399,304.974609,11.490000,9.648001,1524642203000
Fix,gps,48.355569,15.692562,302.986816,12.050000,9.648001,1524642204000
Fix,gps,48.355536,15.692711,301.022644,11.460000,9.648001,1524642205000
Fix,gps,48.355526,15.692864,299.276611,11.130000,9.648001,1524642206000
Fix,gps,48.355518,15.693002,298.623413,10.580000,9.648001,1524642207000
Fix,gps,48.355509,15.693155,297.666565,10.620000,9.648001,1524642208000
Fix,gps,48.355499,15.693290,296.325073,10.320000,9.648001,1524642209000
Fix,gps,48.355487,15.693424,295.414612,9.930000,9.648001,1524642210000
Fix,gps,48.355479,15.693563,294.800903,10.380000,9.648001,1524642211000
Fix,gps,48.355467,15.693691,295.266846,10.010000,9.648001,1524642212000
Fix,gps,48.355450,15.693822,296.046204,9.280000,9.648001,1524642213000
Fix,gps,48.355430,15.693938,296.162476,9.160000,9.648001,1524642214000
Fix,gps,48.355409,15.694057,296.127502,9.000000,9.648001,1524642215000
Fix,gps,48.355407,15.694152,294.294312,8.310000,9.648001,1524642216000
Fix,gps,48.355417,15.694244,292.331299,8.460000,9.648001,1524642217000
Fix,gps,48.355427,15.694358,290.647156,7.800000,9.648001,1524642218000
Fix,gps,48.355439,15.694446,289.897461,7.050000,9.648001,1524642219000
Fix,gps,48.355438,15.694535,290.663208,6.370000,9.648001,1524642220000
Fix,gps,48.355448,15.694608,290.970154,5.660000,9.648001,1524642221000
Fix,gps,48.355452,15.694678,290.140137,5.100000,9.648001,1524642222000
Fix,gps,48.355447,15.694744,289.991821,4.920000,10.720000,1524642223000
Fix,gps,48.355448,15.694778,289.757874,3.450000,10.720000,1524642224000
Fix,gps,48.355433,15.694802,289.921021,2.780000,10.720000,1524642225000
Fix,gps,48.355425,15.694797,289.622925,1.110000,10.720000,1524642226000
Fix,gps,48.355424,15.694779,289.951416,0.000000,10.720000,1524642227000
Fix,gps,48.355427,15.694774,290.247009,0.000000,10.720000,1524642228000
Fix,gps,48.355427,15.694781,290.315552,0.000000,10.720000,1524642229000
Fix,gps,48.355429,15.694778,290.361084,0.000000,10.720000,1524642230000
Fix,gps,48.355427,15.694776,290.475342,0.000000,9.648001,1524642231000
Fix,gps,48.355421,15.694779,290.378540,0.000000,9.648001,1524642232000
Fix,gps,48.355408,15.694785,290.521545,0.910000,9.648001,1524642233000
Fix,gps,48.355396,15.694813,290.803467,1.630000,9.648001,1524642234000
Fix,gps,48.355393,15.694841,290.708618,1.920000,9.648001,1524642235000
Fix,gps,48.355395,15.694871,290.090942,1.880000,9.648001,1524642236000
Fix,gps,48.355407,15.694899,290.301636,2.650000,9.648001,1524642237000
Fix,gps,48.355432,15.694930,291.012085,3.530000,9.648001,1524642238000
Fix,gps,48.355461,15.694964,291.131226,4.180000,9.648001,1524642239000
Fix,gps,48.355496,15.695013,292.381714,5.600000,9.648001,1524642240000
Fix,gps,48.355550,15.695073,291.849731,6.550000,9.648001,1524642241000
Fix,gps,48.355607,15.695126,291.955505,6.970000,9.648001,1524642242000
Fix,gps,48.355659,15.695190,292.402954,6.900000,9.648001,1524642243000
Fix,gps,48.355707,15.695240,291.813599,6.950000,9.648001,1524642244000
Fix,gps,48.355757,15.695298,292.664856,7.140000,9.648001,1524642245000
Fix,gps,48.355801,15.695344,291.556763,7.130000,9.648001,1524642246000
Fix,gps,48.355838,15.695437,291.783569,6.840000,9.648001,1524642247000
Fix,gps,48.355872,15.695505,291.804199,6.420000,3.216000,1524642248000
Fix,gps,48.355915,15.695562,291.594299,6.210000,3.216000,1524642249000
Fix,gps,48.355961,15.695607,291.576416,6.210000,4.288000,1524642250000
Fix,gps,48.356009,15.695646,290.346985,6.500000,4.288000,1524642251000
Fix,gps,48.356066,15.695665,290.680908,6.600000,4.288000,1524642252000
Fix,gps,48.356123,15.695683,290.765991,6.520000,4.288000,1524642253000
Fix,gps,48.356186,15.695700,290.725342,6.940000,5.360000,1524642254000
Fix,gps,48.356249,15.695710,290.503540,6.950000,5.360000,1524642255000
Fix,gps,48.356313,15.695722,290.249573,7.100000,4.288000,1524642256000
Fix,gps,48.356378,15.695734,290.396240,7.000000,4.288000,1524642257000
Fix,gps,48.356436,15.695749,290.804077,6.840000,4.288000,1524642258000
Fix,gps,48.356494,15.695762,291.016968,6.380000,4.288000,1524642259000
Fix,gps,48.356550,15.695764,291.562622,5.670000,4.288000,1524642260000
Fix,gps,48.356597,15.695765,291.262268,5.080000,4.288000,1524642261000
Fix,gps,48.356638,15.695791,291.711548,4.800000,4.288000,1524642262000
Fix,gps,48.356662,15.695835,291.841675,4.370000,5.360000,1524642263000
Fix,gps,48.356662,15.695886,290.976074,4.290000,5.360000,1524642264000
Fix,gps,48.356647,15.695947,290.634277,4.680000,7.504000,1524642265000
Fix,gps,48.356621,15.696019,290.427124,5.890000,5.360000,1524642266000
Fix,gps,48.356598,15.696094,290.183350,6.490000,5.360000,1524642267000
Fix,gps,48.356572,15.696181,289.815918,6.930000,5.360000,1524642268000
Fix,gps,48.356547,15.696269,290.227295,7.150000,5.360000,1524642269000
Fix,gps,48.356516,15.696351,289.220093,7.030000,5.360000,1524642270000
Fix,gps,48.356479,15.696431,289.154236,6.920000,5.360000,1524642271000
Fix,gps,48.356436,15.696494,288.349670,6.980000,5.360000,1524642272000
Fix,gps,48.356375,15.696548,288.039307,7.290000,5.360000,1524642273000
Fix,gps,48.356316,15.696594,287.502563,7.360000,4.288000,1524642274000
Fix,gps,48.356260,15.696650,287.088501,7.350000,4.288000,1524642275000
Fix,gps,48.356215,15.696721,286.854980,7.410000,4.288000,1524642276000
Fix,gps,48.356179,15.696807,287.214233,7.420000,4.288000,1524642277000
Fix,gps,48.356160,15.696901,286.383545,7.540000,4.288000,1524642278000
Fix,gps,48.356145,15.697002,286.074707,7.730000,4.288000,1524642279000
Fix,gps,48.356129,15.697105,285.970154,7.590000,4.288000,1524642280000
Fix,gps,48.356127,15.697209,285.531128,7.170000,5.360000,1524642281000
Fix,gps,48.356125,15.697297,285.349243,6.670000,5.360000,1524642282000
Fix,gps,48.356129,15.697380,285.047607,6.420000,5.360000,1524642283000
Fix,gps,48.356137,15.697476,284.660645,6.870000,5.360000,1524642284000
Fix,gps,48.356151,15.697562,284.728699,6.720000,5.360000,1524642285000
Fix,gps,48.356154,15.697650,284.459961,6.380000,5.360000,1524642286000
Fix,gps,48.356140,15.697732,284.324646,6.200000,6.432000,1524642287000
Fix,gps,48.356103,15.697786,283.899414,5.830000,6.432000,1524642288000
Fix,gps,48.356053,15.697806,282.618774,5.880000,5.360000,1524642289000
Fix,gps,48.355998,15.697810,282.380310,6.010000,5.360000,1524642290000
Fix,gps,48.355941,15.697807,281.497070,6.170000,5.360000,1524642291000
Fix,gps,48.355884,15.697805,281.083069,6.230000,5.360000,1524642292000
Fix,gps,48.355825,15.697801,281.179565,6.360000,5.360000,1524642293000
Fix,gps,48.355775,15.697793,280.586304,6.270000,5.360000,1524642294000
Fix,gps,48.355721,15.697780,280.436035,6.150000,5.360000,1524642295000
Fix,gps,48.355668,15.697768,280.035339,5.720000,5.360000,1524642296000
Fix,gps,48.355621,15.697764,279.431030,4.900000,5.360000,1524642297000
Fix,gps,48.355591,15.697763,277.964478,3.660000,4.288000,1524642298000
Fix,gps,48.355566,15.697762,277.617310,1.880000,4.288000,1524642299000
Fix,gps,48.355554,15.697763,276.571533,0.820000,4.288000,1524642300000
Fix,gps,48.355549,15.697760,276.559204,0.000000,4.288000,1524642301000
Fix,gps,48.355550,15.697761,276.371277,0.000000,5.360000,1524642302000
Fix,gps,48.355553,15.697763,276.188721,0.000000,6.432000,1524642303000
Fix,gps,48.355555,15.697763,276.534424,0.000000,5.360000,1524642304000
Fix,gps,48.355555,15.697761,276.533752,0.000000,5.360000,1524642305000
Fix,gps,48.355556,15.697761,276.609558,0.000000,5.360000,1524642306000
Fix,gps,48.355557,15.697760,276.932190,0.000000,5.360000,1524642307000
Fix,gps,48.355559,15.697761,276.701782,0.000000,5.360000,1524642308000
Fix,gps,48.355560,15.697763,276.746704,0.000000,5.360000,1524642309000
Fix,gps,48.355558,15.697763,276.363403,0.000000,4.288000,1524642310000
Fix,gps,48.355563,15.697762,274.885376,0.430000,4.288000,1524642311000
Fix,gps,48.355553,15.697767,271.911255,1.550000,4.288000,1524642312000
Fix,gps,48.355542,15.697769,269.135742,1.360000,4.288000,1524642313000
